[
  {
    "name": "Hiratsuka ST1",
    "lat": 34.5956,
    "lon": 139.9183,
    "x": 230,
    "y": 286,
    "color": {
      "r": 0,
      "g": 0,
      "b": 0
    }
  },
  {
    "name": "Hiratsuka ST2",
    "lat": 34.7396,
    "lon": 139.8393,
    "x": 228,
    "y": 282,
    "color": {
      "r": 0,
      "g": 0,
      "b": 0
    }
  },
  {
    "name": "Hiratsuka ST3",
    "lat": 34.7983,
    "lon": 139.6435,
    "x": 224,
    "y": 281,
    "color": {
      "r": 0,
      "g": 0,
      "b": 0
    }
  },
  {
    "name": "Hiratsuka ST4",
    "lat": 34.8931,
    "lon": 139.5711,
    "x": 223,
    "y": 278,
    "color": {
      "r": 0,
      "g": 0,
      "b": 0
    }
  },
  {
    "name": "Hiratsuka ST5",
    "lat": 34.9413,
    "lon": 139.4213,
    "x": 220,
    "y": 277,
    "color": {
      "r": 0,
      "g": 0,
      "b": 0
    }
  },
  {
    "name": "Hiratsuka ST6",
    "lat": 35.0966,
    "lon": 139.3778,
    "x": 219,
    "y": 273,
    "color": {
      "r": 0,
      "g": 0,
      "b": 0
    }
  },
  {
    "name": "Ueno",
    "lat": 34.7677,
    "lon": 136.1151,
    "x": 152,
    "y": 282,
    "color": {
      "r": 0,
      "g": 0,
      "b": 205
    }
  },
  {
    "name": "Kameyama",
    "lat": 34.8569,
    "lon": 136.4493,
    "x": 160,
    "y": 278,
    "color": {
      "r": 0,
      "g": 0,
      "b": 205
    }
  },
  {
    "name": "Ise",
    "lat": 34.4908,
    "lon": 136.7334,
    "x": 165,
    "y": 288,
    "color": {
      "r": 0,
      "g": 0,
      "b": 205
    }
  },
  {
    "name": "Nantō",
    "lat": 34.2777,
    "lon": 136.4996,
    "x": 160,
    "y": 294,
    "color": {
      "r": 0,
      "g": 0,
      "b": 205
    }
  },
  {
    "name": "Nabari",
    "lat": 34.6285,
    "lon": 136.1073,
    "x": 153,
    "y": 286,
    "color": {
      "r": 0,
      "g": 0,
      "b": 205
    }
  },
  {
    "name": "Yokkaichi",
    "lat": 34.9849,
    "lon": 136.4563,
    "x": 159,
    "y": 277,
    "color": {
      "r": 0,
      "g": 0,
      "b": 205
    }
  },
  {
    "name": "Yokkaichi",
    "lat": 34.9704,
    "lon": 136.6357,
    "x": 163,
    "y": 277,
    "color": {
      "r": 0,
      "g": 72,
      "b": 250
    }
  },
  {
    "name": "Ōyamada",
    "lat": 34.7662,
    "lon": 136.2835,
    "x": 156,
    "y": 282,
    "color": {
      "r": 0,
      "g": 0,
      "b": 205
    }
  },
  {
    "name": "Ureshino",
    "lat": 34.547,
    "lon": 136.3692,
    "x": 158,
    "y": 287,
    "color": {
      "r": 0,
      "g": 0,
      "b": 205
    }
  },
  {
    "name": "Miyagawa",
    "lat": 34.358,
    "lon": 136.3293,
    "x": 157,
    "y": 292,
    "color": {
      "r": 0,
      "g": 0,
      "b": 205
    }
  },
  {
    "name": "Miyagawa",
    "lat": 34.3624,
    "lon": 136.3348,
    "x": 157,
    "y": 291,
    "color": {
      "r": 0,
      "g": 0,
      "b": 205
    }
  },
  {
    "name": "Owase",
    "lat": 34.0636,
    "lon": 136.1689,
    "x": 154,
    "y": 299,
    "color": {
      "r": 0,
      "g": 0,
      "b": 205
    }
  },
  {
    "name": "Owase",
    "lat": 34.0637,
    "lon": 136.1689,
    "x": 153,
    "y": 299,
    "color": {
      "r": 0,
      "g": 0,
      "b": 205
    }
  },
  {
    "name": "Watarai",
    "lat": 34.3532,
    "lon": 136.5866,
    "x": 162,
    "y": 292,
    "color": {
      "r": 0,
      "g": 0,
      "b": 205
    }
  },
  {
    "name": "Shima",
    "lat": 34.2544,
    "lon": 136.8216,
    "x": 167,
    "y": 294,
    "color": {
      "r": 0,
      "g": 0,
      "b": 205
    }
  },
  {
    "name": "Shima",
    "lat": 34.2544,
    "lon": 136.8232,
    "x": 167,
    "y": 294,
    "color": {
      "r": 0,
      "g": 0,
      "b": 205
    }
  },
  {
    "name": "Matsusaka",
    "lat": 34.5424,
    "lon": 136.5033,
    "x": 161,
    "y": 288,
    "color": {
      "r": 0,
      "g": 0,
      "b": 205
    }
  },
  {
    "name": "Matsusaka",
    "lat": 34.5752,
    "lon": 136.5296,
    "x": 162,
    "y": 285,
    "color": {
      "r": 0,
      "g": 0,
      "b": 205
    }
  },
  {
    "name": "Kameyama",
    "lat": 34.8702,
    "lon": 136.4546,
    "x": 159,
    "y": 279,
    "color": {
      "r": 0,
      "g": 0,
      "b": 205
    }
  },
  {
    "name": "Tsu",
    "lat": 34.7178,
    "lon": 136.5039,
    "x": 160,
    "y": 283,
    "color": {
      "r": 0,
      "g": 0,
      "b": 205
    }
  },
  {
    "name": "Kumano",
    "lat": 33.8783,
    "lon": 136.0822,
    "x": 152,
    "y": 303,
    "color": {
      "r": 0,
      "g": 0,
      "b": 205
    }
  },
  {
    "name": "Hakusan",
    "lat": 34.6435,
    "lon": 136.3365,
    "x": 157,
    "y": 285,
    "color": {
      "r": 0,
      "g": 0,
      "b": 205
    }
  },
  {
    "name": "Kiwa",
    "lat": 33.8764,
    "lon": 135.9188,
    "x": 148,
    "y": 303,
    "color": {
      "r": 0,
      "g": 0,
      "b": 205
    }
  },
  {
    "name": "Kihō",
    "lat": 33.7644,
    "lon": 135.9969,
    "x": 150,
    "y": 306,
    "color": {
      "r": 0,
      "g": 0,
      "b": 205
    }
  },
  {
    "name": "Geinō",
    "lat": 34.8224,
    "lon": 136.4245,
    "x": 159,
    "y": 281,
    "color": {
      "r": 0,
      "g": 0,
      "b": 205
    }
  },
  {
    "name": "Komono",
    "lat": 35.0279,
    "lon": 136.5073,
    "x": 161,
    "y": 275,
    "color": {
      "r": 0,
      "g": 28,
      "b": 223
    }
  },
  {
    "name": "Fujiwara",
    "lat": 35.1718,
    "lon": 136.4943,
    "x": 160,
    "y": 272,
    "color": {
      "r": 0,
      "g": 0,
      "b": 205
    }
  },
  {
    "name": "Īitaka",
    "lat": 34.4283,
    "lon": 136.3329,
    "x": 157,
    "y": 290,
    "color": {
      "r": 0,
      "g": 0,
      "b": 205
    }
  },
  {
    "name": "Tango",
    "lat": 35.7406,
    "lon": 135.1022,
    "x": 132,
    "y": 258,
    "color": {
      "r": 0,
      "g": 0,
      "b": 205
    }
  },
  {
    "name": "Kumiyama",
    "lat": 34.8983,
    "lon": 135.7461,
    "x": 145,
    "y": 278,
    "color": {
      "r": 0,
      "g": 28,
      "b": 223
    }
  },
  {
    "name": "Kumihama",
    "lat": 35.6037,
    "lon": 134.8941,
    "x": 128,
    "y": 261,
    "color": {
      "r": 0,
      "g": 28,
      "b": 223
    }
  },
  {
    "name": "Kameoka",
    "lat": 35.0469,
    "lon": 135.4846,
    "x": 140,
    "y": 275,
    "color": {
      "r": 0,
      "g": 0,
      "b": 205
    }
  },
  {
    "name": "Kameoka",
    "lat": 35.017,
    "lon": 135.5638,
    "x": 141,
    "y": 275,
    "color": {
      "r": 0,
      "g": 0,
      "b": 205
    }
  },
  {
    "name": "Kyōto",
    "lat": 35.0094,
    "lon": 135.7304,
    "x": 145,
    "y": 276,
    "color": {
      "r": 0,
      "g": 0,
      "b": 205
    }
  },
  {
    "name": "Kyōto",
    "lat": 34.9962,
    "lon": 135.8188,
    "x": 147,
    "y": 275,
    "color": {
      "r": 0,
      "g": 0,
      "b": 205
    }
  },
  {
    "name": "Ine",
    "lat": 35.7101,
    "lon": 135.2496,
    "x": 135,
    "y": 258,
    "color": {
      "r": 0,
      "g": 0,
      "b": 205
    }
  },
  {
    "name": "Ine",
    "lat": 35.6767,
    "lon": 135.2919,
    "x": 136,
    "y": 259,
    "color": {
      "r": 0,
      "g": 0,
      "b": 205
    }
  },
  {
    "name": "Minamiyamashiro",
    "lat": 34.7732,
    "lon": 135.9921,
    "x": 150,
    "y": 281,
    "color": {
      "r": 0,
      "g": 0,
      "b": 0
    }
  },
  {
    "name": "Ōfuse",
    "lat": 35.2098,
    "lon": 135.7738,
    "x": 145,
    "y": 271,
    "color": {
      "r": 0,
      "g": 0,
      "b": 205
    }
  },
  {
    "name": "Uji",
    "lat": 34.8784,
    "lon": 135.8047,
    "x": 147,
    "y": 280,
    "color": {
      "r": 0,
      "g": 0,
      "b": 205
    }
  },
  {
    "name": "Miyazu",
    "lat": 35.5354,
    "lon": 135.196,
    "x": 135,
    "y": 263,
    "color": {
      "r": 0,
      "g": 0,
      "b": 205
    }
  },
  {
    "name": "Hirogawara",
    "lat": 35.2497,
    "lon": 135.7667,
    "x": 145,
    "y": 270,
    "color": {
      "r": 0,
      "g": 0,
      "b": 205
    }
  },
  {
    "name": "Hiyoshi",
    "lat": 35.1637,
    "lon": 135.5016,
    "x": 140,
    "y": 272,
    "color": {
      "r": 0,
      "g": 0,
      "b": 205
    }
  },
  {
    "name": "Honjō",
    "lat": 35.2612,
    "lon": 135.3966,
    "x": 138,
    "y": 269,
    "color": {
      "r": 0,
      "g": 0,
      "b": 205
    }
  },
  {
    "name": "Fukuchiyama",
    "lat": 35.313,
    "lon": 135.1334,
    "x": 132,
    "y": 268,
    "color": {
      "r": 0,
      "g": 0,
      "b": 205
    }
  },
  {
    "name": "Fukuchiyama",
    "lat": 35.2759,
    "lon": 135.1827,
    "x": 133,
    "y": 269,
    "color": {
      "r": 0,
      "g": 0,
      "b": 205
    }
  },
  {
    "name": "Amino",
    "lat": 35.6814,
    "lon": 135.0268,
    "x": 130,
    "y": 259,
    "color": {
      "r": 0,
      "g": 0,
      "b": 0
    }
  },
  {
    "name": "Miyama",
    "lat": 35.2685,
    "lon": 135.5508,
    "x": 141,
    "y": 269,
    "color": {
      "r": 0,
      "g": 0,
      "b": 205
    }
  },
  {
    "name": "Maizuru",
    "lat": 35.4759,
    "lon": 135.3891,
    "x": 138,
    "y": 264,
    "color": {
      "r": 0,
      "g": 0,
      "b": 205
    }
  },
  {
    "name": "Ashu",
    "lat": 35.3057,
    "lon": 135.713,
    "x": 144,
    "y": 268,
    "color": {
      "r": 0,
      "g": 0,
      "b": 0
    }
  },
  {
    "name": "Nodagawa",
    "lat": 35.5243,
    "lon": 135.1243,
    "x": 131,
    "y": 263,
    "color": {
      "r": 0,
      "g": 0,
      "b": 205
    }
  },
  {
    "name": "Imari",
    "lat": 33.2656,
    "lon": 129.8798,
    "x": 26,
    "y": 318,
    "color": {
      "r": 0,
      "g": 0,
      "b": 205
    }
  },
  {
    "name": "Imari",
    "lat": 33.2646,
    "lon": 129.8813,
    "x": 26,
    "y": 318,
    "color": {
      "r": 0,
      "g": 0,
      "b": 205
    }
  },
  {
    "name": "Saga",
    "lat": 33.2627,
    "lon": 130.3004,
    "x": 34,
    "y": 318,
    "color": {
      "r": 0,
      "g": 28,
      "b": 223
    }
  },
  {
    "name": "Kyūragi",
    "lat": 33.3213,
    "lon": 130.0643,
    "x": 29,
    "y": 317,
    "color": {
      "r": 0,
      "g": 0,
      "b": 205
    }
  },
  {
    "name": "Karatsu",
    "lat": 33.4247,
    "lon": 129.9195,
    "x": 26,
    "y": 314,
    "color": {
      "r": 0,
      "g": 0,
      "b": 205
    }
  },
  {
    "name": "Fuji",
    "lat": 33.4098,
    "lon": 130.2329,
    "x": 33,
    "y": 315,
    "color": {
      "r": 0,
      "g": 0,
      "b": 205
    }
  },
  {
    "name": "Fuji",
    "lat": 33.373,
    "lon": 130.2074,
    "x": 32,
    "y": 316,
    "color": {
      "r": 0,
      "g": 0,
      "b": 205
    }
  },
  {
    "name": "Higashisefuri",
    "lat": 33.3654,
    "lon": 130.4046,
    "x": 36,
    "y": 316,
    "color": {
      "r": 0,
      "g": 0,
      "b": 205
    }
  },
  {
    "name": "Takeo",
    "lat": 33.1916,
    "lon": 130.034,
    "x": 29,
    "y": 320,
    "color": {
      "r": 0,
      "g": 0,
      "b": 205
    }
  },
  {
    "name": "Shiroishi",
    "lat": 33.1806,
    "lon": 130.1046,
    "x": 30,
    "y": 320,
    "color": {
      "r": 0,
      "g": 0,
      "b": 205
    }
  },
  {
    "name": "Chinzei",
    "lat": 33.508,
    "lon": 129.8877,
    "x": 26,
    "y": 312,
    "color": {
      "r": 0,
      "g": 0,
      "b": 205
    }
  },
  {
    "name": "Chinzei",
    "lat": 33.5274,
    "lon": 129.8771,
    "x": 25,
    "y": 312,
    "color": {
      "r": 0,
      "g": 0,
      "b": 205
    }
  },
  {
    "name": "Kashima",
    "lat": 33.1038,
    "lon": 130.0996,
    "x": 30,
    "y": 322,
    "color": {
      "r": 0,
      "g": 0,
      "b": 205
    }
  },
  {
    "name": "Mihara",
    "lat": 34.2937,
    "lon": 134.7941,
    "x": 126,
    "y": 293,
    "color": {
      "r": 0,
      "g": 0,
      "b": 205
    }
  },
  {
    "name": "Miki",
    "lat": 34.7976,
    "lon": 134.9899,
    "x": 130,
    "y": 281,
    "color": {
      "r": 0,
      "g": 0,
      "b": 205
    }
  },
  {
    "name": "Sanda",
    "lat": 34.9515,
    "lon": 135.2713,
    "x": 135,
    "y": 277,
    "color": {
      "r": 0,
      "g": 0,
      "b": 0
    }
  },
  {
    "name": "Kōzuki",
    "lat": 34.9848,
    "lon": 134.3228,
    "x": 116,
    "y": 276,
    "color": {
      "r": 0,
      "g": 0,
      "b": 205
    }
  },
  {
    "name": "Kamigōri",
    "lat": 34.8995,
    "lon": 134.3284,
    "x": 116,
    "y": 278,
    "color": {
      "r": 0,
      "g": 0,
      "b": 205
    }
  },
  {
    "name": "Tannan",
    "lat": 35.0593,
    "lon": 135.1777,
    "x": 133,
    "y": 274,
    "color": {
      "r": 0,
      "g": 0,
      "b": 205
    }
  },
  {
    "name": "Goshiki",
    "lat": 34.4149,
    "lon": 134.7925,
    "x": 126,
    "y": 290,
    "color": {
      "r": 0,
      "g": 0,
      "b": 205
    }
  },
  {
    "name": "Izushi",
    "lat": 35.4574,
    "lon": 134.8621,
    "x": 127,
    "y": 265,
    "color": {
      "r": 0,
      "g": 0,
      "b": 205
    }
  },
  {
    "name": "Izushi",
    "lat": 35.4615,
    "lon": 134.8758,
    "x": 127,
    "y": 264,
    "color": {
      "r": 0,
      "g": 0,
      "b": 205
    }
  },
  {
    "name": "Kakogawa",
    "lat": 34.8164,
    "lon": 134.8078,
    "x": 126,
    "y": 280,
    "color": {
      "r": 0,
      "g": 0,
      "b": 205
    }
  },
  {
    "name": "Kakogawa",
    "lat": 34.832,
    "lon": 134.8236,
    "x": 126,
    "y": 280,
    "color": {
      "r": 0,
      "g": 0,
      "b": 205
    }
  },
  {
    "name": "Kami",
    "lat": 35.101,
    "lon": 134.9036,
    "x": 128,
    "y": 273,
    "color": {
      "r": 0,
      "g": 0,
      "b": 205
    }
  },
  {
    "name": "Nankō",
    "lat": 35.0671,
    "lon": 134.4234,
    "x": 118,
    "y": 274,
    "color": {
      "r": 0,
      "g": 0,
      "b": 205
    }
  },
  {
    "name": "Nandan",
    "lat": 34.2499,
    "lon": 134.7292,
    "x": 124,
    "y": 294,
    "color": {
      "r": 0,
      "g": 0,
      "b": 205
    }
  },
  {
    "name": "Wadayama",
    "lat": 35.3407,
    "lon": 134.8619,
    "x": 127,
    "y": 267,
    "color": {
      "r": 0,
      "g": 0,
      "b": 205
    }
  },
  {
    "name": "Yumesaki",
    "lat": 35.0322,
    "lon": 134.6701,
    "x": 123,
    "y": 275,
    "color": {
      "r": 0,
      "g": 0,
      "b": 205
    }
  },
  {
    "name": "Ōya",
    "lat": 35.3326,
    "lon": 134.6652,
    "x": 123,
    "y": 268,
    "color": {
      "r": 0,
      "g": 0,
      "b": 0
    }
  },
  {
    "name": "Himeji",
    "lat": 34.8143,
    "lon": 134.687,
    "x": 123,
    "y": 280,
    "color": {
      "r": 0,
      "g": 0,
      "b": 205
    }
  },
  {
    "name": "Yamazaki",
    "lat": 34.9959,
    "lon": 134.552,
    "x": 121,
    "y": 276,
    "color": {
      "r": 0,
      "g": 0,
      "b": 205
    }
  },
  {
    "name": "Santō",
    "lat": 35.2925,
    "lon": 134.9071,
    "x": 128,
    "y": 269,
    "color": {
      "r": 0,
      "g": 0,
      "b": 205
    }
  },
  {
    "name": "Ichikawa",
    "lat": 34.989,
    "lon": 134.7634,
    "x": 125,
    "y": 276,
    "color": {
      "r": 0,
      "g": 0,
      "b": 205
    }
  },
  {
    "name": "Shingū",
    "lat": 34.9313,
    "lon": 134.5423,
    "x": 120,
    "y": 277,
    "color": {
      "r": 0,
      "g": 0,
      "b": 205
    }
  },
  {
    "name": "Akashi",
    "lat": 34.6444,
    "lon": 134.9999,
    "x": 130,
    "y": 285,
    "color": {
      "r": 0,
      "g": 0,
      "b": 0
    }
  },
  {
    "name": "Muraoka",
    "lat": 35.4697,
    "lon": 134.5953,
    "x": 121,
    "y": 264,
    "color": {
      "r": 0,
      "g": 0,
      "b": 205
    }
  },
  {
    "name": "Muraoka",
    "lat": 35.4582,
    "lon": 134.5748,
    "x": 121,
    "y": 265,
    "color": {
      "r": 0,
      "g": 0,
      "b": 205
    }
  },
  {
    "name": "Tōjō",
    "lat": 34.9082,
    "lon": 135.0844,
    "x": 131,
    "y": 278,
    "color": {
      "r": 0,
      "g": 0,
      "b": 205
    }
  },
  {
    "name": "Higashiura",
    "lat": 34.533,
    "lon": 134.9904,
    "x": 130,
    "y": 287,
    "color": {
      "r": 0,
      "g": 0,
      "b": 205
    }
  },
  {
    "name": "Haga",
    "lat": 35.2193,
    "lon": 134.5237,
    "x": 120,
    "y": 270,
    "color": {
      "r": 0,
      "g": 0,
      "b": 205
    }
  },
  {
    "name": "Haga",
    "lat": 35.1637,
    "lon": 134.5459,
    "x": 120,
    "y": 272,
    "color": {
      "r": 0,
      "g": 0,
      "b": 0
    }
  },
  {
    "name": "Sumoto",
    "lat": 34.3405,
    "lon": 134.9014,
    "x": 128,
    "y": 292,
    "color": {
      "r": 0,
      "g": 0,
      "b": 205
    }
  },
  {
    "name": "Hamasaka",
    "lat": 35.6194,
    "lon": 134.45,
    "x": 119,
    "y": 261,
    "color": {
      "r": 0,
      "g": 0,
      "b": 0
    }
  },
  {
    "name": "Ikuno",
    "lat": 35.1482,
    "lon": 134.788,
    "x": 125,
    "y": 272,
    "color": {
      "r": 0,
      "g": 0,
      "b": 205
    }
  },
  {
    "name": "Aioi",
    "lat": 34.7935,
    "lon": 134.4792,
    "x": 119,
    "y": 281,
    "color": {
      "r": 0,
      "g": 0,
      "b": 205
    }
  },
  {
    "name": "Kōbe",
    "lat": 34.6898,
    "lon": 135.1583,
    "x": 133,
    "y": 283,
    "color": {
      "r": 0,
      "g": 0,
      "b": 205
    }
  },
  {
    "name": "Sasayama",
    "lat": 35.0708,
    "lon": 135.2811,
    "x": 135,
    "y": 274,
    "color": {
      "r": 0,
      "g": 0,
      "b": 205
    }
  },
  {
    "name": "Nishinomiya",
    "lat": 34.7463,
    "lon": 135.3499,
    "x": 137,
    "y": 282,
    "color": {
      "r": 0,
      "g": 0,
      "b": 205
    }
  },
  {
    "name": "Nishiwaki",
    "lat": 35.0023,
    "lon": 134.9999,
    "x": 130,
    "y": 276,
    "color": {
      "r": 0,
      "g": 0,
      "b": 205
    }
  },
  {
    "name": "Akō",
    "lat": 34.7551,
    "lon": 134.39,
    "x": 117,
    "y": 282,
    "color": {
      "r": 0,
      "g": 50,
      "b": 236
    }
  },
  {
    "name": "Kasumi",
    "lat": 35.6208,
    "lon": 134.6566,
    "x": 123,
    "y": 261,
    "color": {
      "r": 0,
      "g": 0,
      "b": 205
    }
  },
  {
    "name": "Kasumi",
    "lat": 35.6411,
    "lon": 134.6284,
    "x": 122,
    "y": 260,
    "color": {
      "r": 0,
      "g": 0,
      "b": 205
    }
  },
  {
    "name": "Kuroi",
    "lat": 35.169,
    "lon": 135.1041,
    "x": 132,
    "y": 272,
    "color": {
      "r": 0,
      "g": 0,
      "b": 205
    }
  },
  {
    "name": "Tatsuno",
    "lat": 34.8593,
    "lon": 134.5445,
    "x": 120,
    "y": 279,
    "color": {
      "r": 0,
      "g": 0,
      "b": 205
    }
  },
  {
    "name": "Erimo",
    "lat": 42.017,
    "lon": 143.1487,
    "x": 296,
    "y": 104,
    "color": {
      "r": 0,
      "g": 0,
      "b": 205
    }
  },
  {
    "name": "Erimo Misaki",
    "lat": 41.937,
    "lon": 143.2403,
    "x": 297,
    "y": 106,
    "color": {
      "r": 0,
      "g": 0,
      "b": 205
    }
  },
  {
    "name": "Utoro",
    "lat": 44.0699,
    "lon": 144.9973,
    "x": 333,
    "y": 53,
    "color": {
      "r": 0,
      "g": 0,
      "b": 205
    }
  },
  {
    "name": "Tomuraushi",
    "lat": 43.3338,
    "lon": 142.9473,
    "x": 291,
    "y": 71,
    "color": {
      "r": 0,
      "g": 0,
      "b": 205
    }
  },
  {
    "name": "Niseko",
    "lat": 42.8077,
    "lon": 140.6877,
    "x": 245,
    "y": 84,
    "color": {
      "r": 0,
      "g": 0,
      "b": 205
    }
  },
  {
    "name": "Nanae",
    "lat": 41.8995,
    "lon": 140.6958,
    "x": 246,
    "y": 106,
    "color": {
      "r": 0,
      "g": 0,
      "b": 205
    }
  },
  {
    "name": "Mitsuishi",
    "lat": 42.2528,
    "lon": 142.5643,
    "x": 284,
    "y": 98,
    "color": {
      "r": 0,
      "g": 0,
      "b": 205
    }
  },
  {
    "name": "Mikasa",
    "lat": 43.23,
    "lon": 141.8978,
    "x": 270,
    "y": 74,
    "color": {
      "r": 0,
      "g": 0,
      "b": 205
    }
  },
  {
    "name": "Kaminoyu",
    "lat": 42.1244,
    "lon": 140.3758,
    "x": 239,
    "y": 101,
    "color": {
      "r": 0,
      "g": 0,
      "b": 205
    }
  },
  {
    "name": "Kamikawa",
    "lat": 43.8546,
    "lon": 142.7656,
    "x": 288,
    "y": 59,
    "color": {
      "r": 0,
      "g": 0,
      "b": 205
    }
  },
  {
    "name": "Kamikawa",
    "lat": 43.8543,
    "lon": 142.7686,
    "x": 288,
    "y": 59,
    "color": {
      "r": 0,
      "g": 0,
      "b": 205
    }
  },
  {
    "name": "Sarufutsu",
    "lat": 45.2141,
    "lon": 142.2255,
    "x": 277,
    "y": 25,
    "color": {
      "r": 0,
      "g": 0,
      "b": 205
    }
  },
  {
    "name": "Kamiiso",
    "lat": 41.8374,
    "lon": 140.6331,
    "x": 244,
    "y": 108,
    "color": {
      "r": 0,
      "g": 0,
      "b": 205
    }
  },
  {
    "name": "Uenishishunbetsu",
    "lat": 43.4108,
    "lon": 144.7704,
    "x": 329,
    "y": 69,
    "color": {
      "r": 0,
      "g": 0,
      "b": 205
    }
  },
  {
    "name": "Shimokawa",
    "lat": 44.3111,
    "lon": 142.6419,
    "x": 285,
    "y": 47,
    "color": {
      "r": 0,
      "g": 0,
      "b": 205
    }
  },
  {
    "name": "Eastern Shimokawa",
    "lat": 44.3207,
    "lon": 142.7656,
    "x": 288,
    "y": 47,
    "color": {
      "r": 0,
      "g": 0,
      "b": 205
    }
  },
  {
    "name": "Western Shimokawa",
    "lat": 44.2921,
    "lon": 142.6303,
    "x": 285,
    "y": 48,
    "color": {
      "r": 0,
      "g": 0,
      "b": 205
    }
  },
  {
    "name": "Nakafurano",
    "lat": 43.3841,
    "lon": 142.5245,
    "x": 283,
    "y": 70,
    "color": {
      "r": 0,
      "g": 0,
      "b": 205
    }
  },
  {
    "name": "Nakagawa",
    "lat": 44.6617,
    "lon": 142.0528,
    "x": 273,
    "y": 39,
    "color": {
      "r": 0,
      "g": 0,
      "b": 205
    }
  },
  {
    "name": "Nakagawa",
    "lat": 44.8116,
    "lon": 142.0717,
    "x": 274,
    "y": 35,
    "color": {
      "r": 0,
      "g": 0,
      "b": 205
    }
  },
  {
    "name": "Nakasatsunai",
    "lat": 42.6975,
    "lon": 143.1356,
    "x": 295,
    "y": 87,
    "color": {
      "r": 0,
      "g": 0,
      "b": 205
    }
  },
  {
    "name": "Nakashibetsu",
    "lat": 43.5508,
    "lon": 144.9665,
    "x": 333,
    "y": 66,
    "color": {
      "r": 0,
      "g": 64,
      "b": 245
    }
  },
  {
    "name": "Nakashibetsu",
    "lat": 43.555,
    "lon": 144.9726,
    "x": 333,
    "y": 66,
    "color": {
      "r": 0,
      "g": 64,
      "b": 245
    }
  },
  {
    "name": "Nakatonbetsu",
    "lat": 44.9387,
    "lon": 142.2247,
    "x": 277,
    "y": 32,
    "color": {
      "r": 0,
      "g": 0,
      "b": 205
    }
  },
  {
    "name": "Nakatonbetsu",
    "lat": 44.9698,
    "lon": 142.2908,
    "x": 278,
    "y": 31,
    "color": {
      "r": 0,
      "g": 0,
      "b": 205
    }
  },
  {
    "name": "Futamata",
    "lat": 43.1502,
    "lon": 143.8916,
    "x": 311,
    "y": 76,
    "color": {
      "r": 0,
      "g": 0,
      "b": 205
    }
  },
  {
    "name": "Niupu",
    "lat": 44.545,
    "lon": 142.5691,
    "x": 284,
    "y": 42,
    "color": {
      "r": 0,
      "g": 0,
      "b": 205
    }
  },
  {
    "name": "Imakane",
    "lat": 42.4286,
    "lon": 140.0175,
    "x": 232,
    "y": 94,
    "color": {
      "r": 0,
      "g": 0,
      "b": 205
    }
  },
  {
    "name": "Date",
    "lat": 42.4727,
    "lon": 140.8658,
    "x": 249,
    "y": 92,
    "color": {
      "r": 0,
      "g": 0,
      "b": 205
    }
  },
  {
    "name": "Saroma",
    "lat": 44.0813,
    "lon": 143.9455,
    "x": 312,
    "y": 53,
    "color": {
      "r": 0,
      "g": 0,
      "b": 205
    }
  },
  {
    "name": "Saroma",
    "lat": 44.0185,
    "lon": 143.7747,
    "x": 308,
    "y": 54,
    "color": {
      "r": 0,
      "g": 0,
      "b": 205
    }
  },
  {
    "name": "Yobetsu",
    "lat": 43.3235,
    "lon": 140.3791,
    "x": 239,
    "y": 72,
    "color": {
      "r": 0,
      "g": 0,
      "b": 205
    }
  },
  {
    "name": "Yoichi",
    "lat": 43.1974,
    "lon": 140.7818,
    "x": 247,
    "y": 75,
    "color": {
      "r": 0,
      "g": 0,
      "b": 205
    }
  },
  {
    "name": "Kucchan",
    "lat": 42.95,
    "lon": 140.8223,
    "x": 249,
    "y": 81,
    "color": {
      "r": 0,
      "g": 0,
      "b": 205
    }
  },
  {
    "name": "Kucchan",
    "lat": 42.9057,
    "lon": 140.7672,
    "x": 246,
    "y": 83,
    "color": {
      "r": 0,
      "g": 0,
      "b": 205
    }
  },
  {
    "name": "Yakumo",
    "lat": 42.2586,
    "lon": 140.2636,
    "x": 237,
    "y": 98,
    "color": {
      "r": 0,
      "g": 0,
      "b": 205
    }
  },
  {
    "name": "Kyōwa",
    "lat": 42.9758,
    "lon": 140.6219,
    "x": 244,
    "y": 80,
    "color": {
      "r": 0,
      "g": 0,
      "b": 205
    }
  },
  {
    "name": "Hakodate",
    "lat": 41.7701,
    "lon": 140.7383,
    "x": 246,
    "y": 110,
    "color": {
      "r": 0,
      "g": 0,
      "b": 205
    }
  },
  {
    "name": "Shosanbetsu",
    "lat": 44.5323,
    "lon": 141.7664,
    "x": 267,
    "y": 42,
    "color": {
      "r": 0,
      "g": 0,
      "b": 0
    }
  },
  {
    "name": "Betsukai",
    "lat": 43.3941,
    "lon": 145.1168,
    "x": 336,
    "y": 70,
    "color": {
      "r": 0,
      "g": 0,
      "b": 205
    }
  },
  {
    "name": "Eastern Betsukai",
    "lat": 43.3978,
    "lon": 145.1224,
    "x": 336,
    "y": 70,
    "color": {
      "r": 0,
      "g": 0,
      "b": 205
    }
  },
  {
    "name": "Western Betsukai",
    "lat": 43.39,
    "lon": 144.8021,
    "x": 329,
    "y": 70,
    "color": {
      "r": 0,
      "g": 0,
      "b": 205
    }
  },
  {
    "name": "Kitashimauta",
    "lat": 42.5949,
    "lon": 139.8287,
    "x": 228,
    "y": 89,
    "color": {
      "r": 0,
      "g": 0,
      "b": 205
    }
  },
  {
    "name": "Kitahiyama",
    "lat": 42.4851,
    "lon": 139.9678,
    "x": 231,
    "y": 92,
    "color": {
      "r": 0,
      "g": 0,
      "b": 205
    }
  },
  {
    "name": "Kitami",
    "lat": 43.7996,
    "lon": 143.9008,
    "x": 311,
    "y": 60,
    "color": {
      "r": 0,
      "g": 7,
      "b": 209
    }
  },
  {
    "name": "Chitose",
    "lat": 42.888,
    "lon": 141.6399,
    "x": 265,
    "y": 82,
    "color": {
      "r": 0,
      "g": 0,
      "b": 205
    }
  },
  {
    "name": "Chitose",
    "lat": 42.79,
    "lon": 141.601,
    "x": 264,
    "y": 85,
    "color": {
      "r": 0,
      "g": 21,
      "b": 218
    }
  },
  {
    "name": "Minamifurano",
    "lat": 43.1666,
    "lon": 142.5662,
    "x": 284,
    "y": 75,
    "color": {
      "r": 0,
      "g": 0,
      "b": 205
    }
  },
  {
    "name": "Minamikayabe",
    "lat": 41.9051,
    "lon": 140.9697,
    "x": 251,
    "y": 106,
    "color": {
      "r": 0,
      "g": 0,
      "b": 205
    }
  },
  {
    "name": "Shimukappu",
    "lat": 43.0406,
    "lon": 142.6562,
    "x": 285,
    "y": 78,
    "color": {
      "r": 0,
      "g": 0,
      "b": 205
    }
  },
  {
    "name": "Shimukappu",
    "lat": 42.9805,
    "lon": 142.3995,
    "x": 280,
    "y": 80,
    "color": {
      "r": 0,
      "g": 0,
      "b": 205
    }
  },
  {
    "name": "Akkeshi",
    "lat": 43.0509,
    "lon": 144.8498,
    "x": 330,
    "y": 78,
    "color": {
      "r": 0,
      "g": 0,
      "b": 0
    }
  },
  {
    "name": "Attoko",
    "lat": 43.2326,
    "lon": 145.2604,
    "x": 338,
    "y": 74,
    "color": {
      "r": 0,
      "g": 0,
      "b": 205
    }
  },
  {
    "name": "Assabu",
    "lat": 41.9856,
    "lon": 140.3087,
    "x": 238,
    "y": 104,
    "color": {
      "r": 0,
      "g": 0,
      "b": 205
    }
  },
  {
    "name": "Atsuta",
    "lat": 43.4001,
    "lon": 141.4346,
    "x": 261,
    "y": 70,
    "color": {
      "r": 0,
      "g": 0,
      "b": 205
    }
  },
  {
    "name": "Atsuma",
    "lat": 42.6486,
    "lon": 141.8641,
    "x": 269,
    "y": 88,
    "color": {
      "r": 0,
      "g": 0,
      "b": 205
    }
  },
  {
    "name": "Furubira",
    "lat": 43.2341,
    "lon": 140.6228,
    "x": 244,
    "y": 74,
    "color": {
      "r": 0,
      "g": 0,
      "b": 205
    }
  },
  {
    "name": "Nayoro",
    "lat": 44.4376,
    "lon": 142.4056,
    "x": 280,
    "y": 44,
    "color": {
      "r": 0,
      "g": 0,
      "b": 205
    }
  },
  {
    "name": "Nayoro",
    "lat": 44.3598,
    "lon": 142.4547,
    "x": 281,
    "y": 46,
    "color": {
      "r": 0,
      "g": 0,
      "b": 0
    }
  },
  {
    "name": "Wassamu",
    "lat": 43.9754,
    "lon": 142.2834,
    "x": 278,
    "y": 56,
    "color": {
      "r": 0,
      "g": 0,
      "b": 205
    }
  },
  {
    "name": "Wassamu",
    "lat": 44.0235,
    "lon": 142.4123,
    "x": 281,
    "y": 54,
    "color": {
      "r": 0,
      "g": 0,
      "b": 205
    }
  },
  {
    "name": "Kimobetsu",
    "lat": 42.768,
    "lon": 140.9766,
    "x": 251,
    "y": 85,
    "color": {
      "r": 0,
      "g": 0,
      "b": 205
    }
  },
  {
    "name": "Kimobetsu",
    "lat": 42.7977,
    "lon": 140.9364,
    "x": 251,
    "y": 84,
    "color": {
      "r": 0,
      "g": 0,
      "b": 205
    }
  },
  {
    "name": "Yonbangawa",
    "lat": 43.5324,
    "lon": 141.5924,
    "x": 264,
    "y": 66,
    "color": {
      "r": 0,
      "g": 0,
      "b": 0
    }
  },
  {
    "name": "Tōro",
    "lat": 43.1486,
    "lon": 144.4976,
    "x": 323,
    "y": 76,
    "color": {
      "r": 0,
      "g": 0,
      "b": 0
    }
  },
  {
    "name": "Mashike",
    "lat": 43.8515,
    "lon": 141.5275,
    "x": 263,
    "y": 59,
    "color": {
      "r": 0,
      "g": 0,
      "b": 205
    }
  },
  {
    "name": "Shibetsu",
    "lat": 44.1821,
    "lon": 142.3942,
    "x": 280,
    "y": 50,
    "color": {
      "r": 0,
      "g": 0,
      "b": 205
    }
  },
  {
    "name": "Shihoro",
    "lat": 43.1694,
    "lon": 143.2408,
    "x": 297,
    "y": 75,
    "color": {
      "r": 0,
      "g": 0,
      "b": 205
    }
  },
  {
    "name": "Sōbetsu",
    "lat": 42.5533,
    "lon": 140.8866,
    "x": 249,
    "y": 90,
    "color": {
      "r": 0,
      "g": 0,
      "b": 205
    }
  },
  {
    "name": "Yūbari",
    "lat": 42.993,
    "lon": 142.0085,
    "x": 272,
    "y": 80,
    "color": {
      "r": 0,
      "g": 0,
      "b": 205
    }
  },
  {
    "name": "Yūbari",
    "lat": 42.9933,
    "lon": 142.0085,
    "x": 272,
    "y": 80,
    "color": {
      "r": 0,
      "g": 0,
      "b": 205
    }
  },
  {
    "name": "Taisei",
    "lat": 42.2286,
    "lon": 139.8184,
    "x": 228,
    "y": 98,
    "color": {
      "r": 0,
      "g": 0,
      "b": 205
    }
  },
  {
    "name": "Taiki",
    "lat": 42.4865,
    "lon": 143.152,
    "x": 296,
    "y": 92,
    "color": {
      "r": 0,
      "g": 0,
      "b": 205
    }
  },
  {
    "name": "Taiki",
    "lat": 42.4984,
    "lon": 143.2787,
    "x": 298,
    "y": 92,
    "color": {
      "r": 0,
      "g": 0,
      "b": 205
    }
  },
  {
    "name": "Ōtaki",
    "lat": 42.6476,
    "lon": 141.0643,
    "x": 253,
    "y": 88,
    "color": {
      "r": 0,
      "g": 0,
      "b": 205
    }
  },
  {
    "name": "Ōtaki",
    "lat": 42.6711,
    "lon": 141.0791,
    "x": 253,
    "y": 88,
    "color": {
      "r": 0,
      "g": 0,
      "b": 205
    }
  },
  {
    "name": "Tenninkyō",
    "lat": 43.6249,
    "lon": 142.6837,
    "x": 286,
    "y": 64,
    "color": {
      "r": 0,
      "g": 0,
      "b": 0
    }
  },
  {
    "name": "Teshio",
    "lat": 44.8948,
    "lon": 141.9251,
    "x": 271,
    "y": 33,
    "color": {
      "r": 0,
      "g": 0,
      "b": 205
    }
  },
  {
    "name": "Teshio",
    "lat": 44.8845,
    "lon": 141.75,
    "x": 267,
    "y": 33,
    "color": {
      "r": 0,
      "g": 0,
      "b": 205
    }
  },
  {
    "name": "Memanbetsu",
    "lat": 43.9144,
    "lon": 144.1913,
    "x": 317,
    "y": 57,
    "color": {
      "r": 0,
      "g": 0,
      "b": 205
    }
  },
  {
    "name": "Sōyamisaki",
    "lat": 45.5132,
    "lon": 141.9548,
    "x": 271,
    "y": 18,
    "color": {
      "r": 0,
      "g": 0,
      "b": 205
    }
  },
  {
    "name": "Jōzankei",
    "lat": 42.9721,
    "lon": 141.1651,
    "x": 255,
    "y": 80,
    "color": {
      "r": 0,
      "g": 0,
      "b": 205
    }
  },
  {
    "name": "Muroran",
    "lat": 42.4116,
    "lon": 141.0017,
    "x": 252,
    "y": 94,
    "color": {
      "r": 0,
      "g": 43,
      "b": 231
    }
  },
  {
    "name": "Muroran",
    "lat": 42.3483,
    "lon": 141.0319,
    "x": 252,
    "y": 96,
    "color": {
      "r": 0,
      "g": 0,
      "b": 205
    }
  },
  {
    "name": "Fujimi",
    "lat": 43.6746,
    "lon": 143.3088,
    "x": 299,
    "y": 63,
    "color": {
      "r": 0,
      "g": 0,
      "b": 0
    }
  },
  {
    "name": "Furano",
    "lat": 43.3697,
    "lon": 142.3409,
    "x": 279,
    "y": 70,
    "color": {
      "r": 0,
      "g": 0,
      "b": 205
    }
  },
  {
    "name": "Furano",
    "lat": 43.3421,
    "lon": 142.3845,
    "x": 280,
    "y": 71,
    "color": {
      "r": 0,
      "g": 0,
      "b": 205
    }
  },
  {
    "name": "Suttsu",
    "lat": 42.7904,
    "lon": 140.2305,
    "x": 236,
    "y": 85,
    "color": {
      "r": 0,
      "g": 0,
      "b": 205
    }
  },
  {
    "name": "Eastern Obira",
    "lat": 44.0974,
    "lon": 141.9621,
    "x": 271,
    "y": 53,
    "color": {
      "r": 0,
      "g": 0,
      "b": 205
    }
  },
  {
    "name": "Western Obira",
    "lat": 44.0254,
    "lon": 141.7876,
    "x": 268,
    "y": 54,
    "color": {
      "r": 0,
      "g": 0,
      "b": 205
    }
  },
  {
    "name": "Otaru",
    "lat": 43.1907,
    "lon": 140.9935,
    "x": 252,
    "y": 75,
    "color": {
      "r": 0,
      "g": 0,
      "b": 205
    }
  },
  {
    "name": "Koshimizu",
    "lat": 43.8566,
    "lon": 144.4574,
    "x": 322,
    "y": 58,
    "color": {
      "r": 0,
      "g": 0,
      "b": 205
    }
  },
  {
    "name": "Koshimizu",
    "lat": 43.8565,
    "lon": 144.4629,
    "x": 322,
    "y": 58,
    "color": {
      "r": 0,
      "g": 0,
      "b": 205
    }
  },
  {
    "name": "Chiisago",
    "lat": 41.6487,
    "lon": 139.9976,
    "x": 231,
    "y": 113,
    "color": {
      "r": 0,
      "g": 28,
      "b": 223
    }
  },
  {
    "name": "Sōunkyō",
    "lat": 43.7704,
    "lon": 142.9033,
    "x": 291,
    "y": 61,
    "color": {
      "r": 0,
      "g": 0,
      "b": 0
    }
  },
  {
    "name": "Iwanai",
    "lat": 42.9793,
    "lon": 140.5094,
    "x": 242,
    "y": 80,
    "color": {
      "r": 0,
      "g": 0,
      "b": 205
    }
  },
  {
    "name": "Iwamizawa",
    "lat": 43.1968,
    "lon": 141.7754,
    "x": 268,
    "y": 75,
    "color": {
      "r": 0,
      "g": 0,
      "b": 205
    }
  },
  {
    "name": "Shimamaki",
    "lat": 42.7797,
    "lon": 140.1557,
    "x": 235,
    "y": 85,
    "color": {
      "r": 0,
      "g": 0,
      "b": 205
    }
  },
  {
    "name": "Shimamaki",
    "lat": 42.7011,
    "lon": 140.0616,
    "x": 233,
    "y": 87,
    "color": {
      "r": 0,
      "g": 0,
      "b": 205
    }
  },
  {
    "name": "Kawayu",
    "lat": 43.6427,
    "lon": 144.3901,
    "x": 321,
    "y": 64,
    "color": {
      "r": 0,
      "g": 0,
      "b": 205
    }
  },
  {
    "name": "Obihiro",
    "lat": 42.9311,
    "lon": 143.2137,
    "x": 297,
    "y": 81,
    "color": {
      "r": 0,
      "g": 0,
      "b": 205
    }
  },
  {
    "name": "Tokoro",
    "lat": 44.1204,
    "lon": 144.0712,
    "x": 314,
    "y": 52,
    "color": {
      "r": 0,
      "g": 0,
      "b": 205
    }
  },
  {
    "name": "Horokanai",
    "lat": 44.0071,
    "lon": 142.1484,
    "x": 275,
    "y": 55,
    "color": {
      "r": 0,
      "g": 0,
      "b": 205
    }
  },
  {
    "name": "Central  Horokanai",
    "lat": 44.116,
    "lon": 142.1414,
    "x": 275,
    "y": 52,
    "color": {
      "r": 0,
      "g": 0,
      "b": 205
    }
  },
  {
    "name": "Northern Horokanai",
    "lat": 44.2803,
    "lon": 142.1594,
    "x": 275,
    "y": 48,
    "color": {
      "r": 0,
      "g": 0,
      "b": 205
    }
  },
  {
    "name": "Southern Horokanai",
    "lat": 43.9994,
    "lon": 142.1258,
    "x": 275,
    "y": 55,
    "color": {
      "r": 0,
      "g": 0,
      "b": 205
    }
  },
  {
    "name": "Horonobe",
    "lat": 45.0167,
    "lon": 142.0795,
    "x": 274,
    "y": 30,
    "color": {
      "r": 0,
      "g": 0,
      "b": 205
    }
  },
  {
    "name": "Horokeshi",
    "lat": 42.7275,
    "lon": 142.2973,
    "x": 278,
    "y": 85,
    "color": {
      "r": 0,
      "g": 0,
      "b": 205
    }
  },
  {
    "name": "Biratori",
    "lat": 42.5886,
    "lon": 142.131,
    "x": 275,
    "y": 90,
    "color": {
      "r": 0,
      "g": 0,
      "b": 205
    }
  },
  {
    "name": "Eastern Biratori",
    "lat": 42.7061,
    "lon": 142.4054,
    "x": 280,
    "y": 87,
    "color": {
      "r": 0,
      "g": 0,
      "b": 205
    }
  },
  {
    "name": "Western Biratori",
    "lat": 42.7031,
    "lon": 142.2296,
    "x": 277,
    "y": 87,
    "color": {
      "r": 0,
      "g": 0,
      "b": 205
    }
  },
  {
    "name": "Hiroo",
    "lat": 42.2864,
    "lon": 143.312,
    "x": 299,
    "y": 97,
    "color": {
      "r": 0,
      "g": 85,
      "b": 238
    }
  },
  {
    "name": "Kitahiroshima",
    "lat": 42.9925,
    "lon": 141.5524,
    "x": 263,
    "y": 80,
    "color": {
      "r": 0,
      "g": 0,
      "b": 205
    }
  },
  {
    "name": "Teshikaga",
    "lat": 43.5077,
    "lon": 144.4485,
    "x": 322,
    "y": 67,
    "color": {
      "r": 0,
      "g": 0,
      "b": 205
    }
  },
  {
    "name": "Tōbetsu",
    "lat": 43.4087,
    "lon": 141.5836,
    "x": 264,
    "y": 69,
    "color": {
      "r": 0,
      "g": 0,
      "b": 205
    }
  },
  {
    "name": "Tōbetsu",
    "lat": 43.2237,
    "lon": 141.5171,
    "x": 262,
    "y": 74,
    "color": {
      "r": 0,
      "g": 0,
      "b": 205
    }
  },
  {
    "name": "Aibetsu",
    "lat": 43.909,
    "lon": 142.5695,
    "x": 284,
    "y": 57,
    "color": {
      "r": 0,
      "g": 0,
      "b": 205
    }
  },
  {
    "name": "Toi",
    "lat": 41.7162,
    "lon": 141.0025,
    "x": 252,
    "y": 111,
    "color": {
      "r": 0,
      "g": 57,
      "b": 240
    }
  },
  {
    "name": "Shikotsukohan",
    "lat": 42.7755,
    "lon": 141.4021,
    "x": 260,
    "y": 85,
    "color": {
      "r": 0,
      "g": 0,
      "b": 205
    }
  },
  {
    "name": "Shari",
    "lat": 43.9136,
    "lon": 144.6657,
    "x": 326,
    "y": 57,
    "color": {
      "r": 0,
      "g": 0,
      "b": 205
    }
  },
  {
    "name": "Northern Shari",
    "lat": 44.064,
    "lon": 144.9935,
    "x": 333,
    "y": 53,
    "color": {
      "r": 0,
      "g": 0,
      "b": 205
    }
  },
  {
    "name": "Southern Shari",
    "lat": 43.9269,
    "lon": 144.8071,
    "x": 329,
    "y": 57,
    "color": {
      "r": 0,
      "g": 0,
      "b": 205
    }
  },
  {
    "name": "Niikappu",
    "lat": 42.5977,
    "lon": 142.5446,
    "x": 283,
    "y": 89,
    "color": {
      "r": 0,
      "g": 0,
      "b": 205
    }
  },
  {
    "name": "Shintoku",
    "lat": 43.0736,
    "lon": 142.8395,
    "x": 289,
    "y": 78,
    "color": {
      "r": 0,
      "g": 0,
      "b": 205
    }
  },
  {
    "name": "Northern Shintoku",
    "lat": 43.3337,
    "lon": 142.9448,
    "x": 291,
    "y": 71,
    "color": {
      "r": 0,
      "g": 0,
      "b": 205
    }
  },
  {
    "name": "Southern Shintoku",
    "lat": 43.1739,
    "lon": 142.9176,
    "x": 291,
    "y": 75,
    "color": {
      "r": 0,
      "g": 0,
      "b": 205
    }
  },
  {
    "name": "Shinshinotsu",
    "lat": 43.2204,
    "lon": 141.6523,
    "x": 265,
    "y": 74,
    "color": {
      "r": 0,
      "g": 0,
      "b": 205
    }
  },
  {
    "name": "Hidaka",
    "lat": 42.8775,
    "lon": 142.4484,
    "x": 281,
    "y": 82,
    "color": {
      "r": 0,
      "g": 0,
      "b": 205
    }
  },
  {
    "name": "Hayakita",
    "lat": 42.7655,
    "lon": 141.8221,
    "x": 269,
    "y": 85,
    "color": {
      "r": 0,
      "g": 0,
      "b": 205
    }
  },
  {
    "name": "Asahikawa",
    "lat": 43.7726,
    "lon": 142.3648,
    "x": 280,
    "y": 61,
    "color": {
      "r": 0,
      "g": 0,
      "b": 205
    }
  },
  {
    "name": "Tsukigata",
    "lat": 43.3443,
    "lon": 141.6635,
    "x": 265,
    "y": 71,
    "color": {
      "r": 0,
      "g": 0,
      "b": 205
    }
  },
  {
    "name": "Asahi",
    "lat": 44.1185,
    "lon": 142.5952,
    "x": 284,
    "y": 52,
    "color": {
      "r": 0,
      "g": 0,
      "b": 205
    }
  },
  {
    "name": "Kikonai",
    "lat": 41.6795,
    "lon": 140.4334,
    "x": 240,
    "y": 112,
    "color": {
      "r": 0,
      "g": 21,
      "b": 218
    }
  },
  {
    "name": "Kimanai",
    "lat": 41.9352,
    "lon": 140.3695,
    "x": 239,
    "y": 106,
    "color": {
      "r": 0,
      "g": 0,
      "b": 205
    }
  },
  {
    "name": "Honbetsu",
    "lat": 43.1211,
    "lon": 143.6181,
    "x": 305,
    "y": 77,
    "color": {
      "r": 0,
      "g": 0,
      "b": 205
    }
  },
  {
    "name": "Honbetsu",
    "lat": 43.1213,
    "lon": 143.6183,
    "x": 305,
    "y": 77,
    "color": {
      "r": 0,
      "g": 0,
      "b": 205
    }
  },
  {
    "name": "Honbetsu-Kai",
    "lat": 43.3852,
    "lon": 145.284,
    "x": 339,
    "y": 70,
    "color": {
      "r": 0,
      "g": 0,
      "b": 0
    }
  },
  {
    "name": "Sapporo",
    "lat": 43.139,
    "lon": 141.3513,
    "x": 260,
    "y": 77,
    "color": {
      "r": 0,
      "g": 0,
      "b": 205
    }
  },
  {
    "name": "Shumaranai",
    "lat": 44.2806,
    "lon": 142.1612,
    "x": 275,
    "y": 48,
    "color": {
      "r": 0,
      "g": 0,
      "b": 205
    }
  },
  {
    "name": "Eastern Rishiri",
    "lat": 45.246,
    "lon": 141.217,
    "x": 256,
    "y": 24,
    "color": {
      "r": 0,
      "g": 0,
      "b": 205
    }
  },
  {
    "name": "Matsumae",
    "lat": 41.4339,
    "lon": 140.1115,
    "x": 234,
    "y": 118,
    "color": {
      "r": 0,
      "g": 0,
      "b": 205
    }
  },
  {
    "name": "Esashi",
    "lat": 44.9375,
    "lon": 142.5744,
    "x": 284,
    "y": 32,
    "color": {
      "r": 0,
      "g": 0,
      "b": 205
    }
  },
  {
    "name": "Kuriyama",
    "lat": 43.0587,
    "lon": 141.8063,
    "x": 268,
    "y": 78,
    "color": {
      "r": 0,
      "g": 0,
      "b": 205
    }
  },
  {
    "name": "Nemuro",
    "lat": 43.3327,
    "lon": 145.6003,
    "x": 345,
    "y": 71,
    "color": {
      "r": 0,
      "g": 0,
      "b": 205
    }
  },
  {
    "name": "Mori",
    "lat": 42.0963,
    "lon": 140.5633,
    "x": 243,
    "y": 102,
    "color": {
      "r": 0,
      "g": 0,
      "b": 205
    }
  },
  {
    "name": "Todohokke",
    "lat": 41.8345,
    "lon": 141.1411,
    "x": 255,
    "y": 108,
    "color": {
      "r": 0,
      "g": 14,
      "b": 214
    }
  },
  {
    "name": "Samani",
    "lat": 42.133,
    "lon": 142.9164,
    "x": 291,
    "y": 101,
    "color": {
      "r": 0,
      "g": 0,
      "b": 205
    }
  },
  {
    "name": "Samani",
    "lat": 42.1306,
    "lon": 142.9353,
    "x": 291,
    "y": 101,
    "color": {
      "r": 0,
      "g": 0,
      "b": 205
    }
  },
  {
    "name": "Shibetsu",
    "lat": 43.6619,
    "lon": 145.1307,
    "x": 336,
    "y": 63,
    "color": {
      "r": 0,
      "g": 0,
      "b": 205
    }
  },
  {
    "name": "Northern Shibetsu",
    "lat": 43.785,
    "lon": 145.0246,
    "x": 334,
    "y": 60,
    "color": {
      "r": 0,
      "g": 0,
      "b": 0
    }
  },
  {
    "name": "Southern Shibetsu",
    "lat": 43.6772,
    "lon": 144.9618,
    "x": 332,
    "y": 63,
    "color": {
      "r": 0,
      "g": 0,
      "b": 205
    }
  },
  {
    "name": "Shibecha",
    "lat": 43.3033,
    "lon": 144.5996,
    "x": 325,
    "y": 72,
    "color": {
      "r": 0,
      "g": 43,
      "b": 231
    }
  },
  {
    "name": "Northern Shibecha",
    "lat": 43.3848,
    "lon": 144.6279,
    "x": 326,
    "y": 70,
    "color": {
      "r": 0,
      "g": 0,
      "b": 205
    }
  },
  {
    "name": "Southern Shibecha",
    "lat": 43.2139,
    "lon": 144.6804,
    "x": 327,
    "y": 74,
    "color": {
      "r": 0,
      "g": 0,
      "b": 205
    }
  },
  {
    "name": "Utanobori",
    "lat": 44.8417,
    "lon": 142.4811,
    "x": 282,
    "y": 34,
    "color": {
      "r": 0,
      "g": 0,
      "b": 205
    }
  },
  {
    "name": "Northern Utanobori",
    "lat": 44.857,
    "lon": 142.4868,
    "x": 282,
    "y": 34,
    "color": {
      "r": 0,
      "g": 0,
      "b": 205
    }
  },
  {
    "name": "Southern Utanobori",
    "lat": 44.7433,
    "lon": 142.6039,
    "x": 284,
    "y": 37,
    "color": {
      "r": 0,
      "g": 0,
      "b": 205
    }
  },
  {
    "name": "Seishu",
    "lat": 44.5453,
    "lon": 141.9653,
    "x": 271,
    "y": 42,
    "color": {
      "r": 0,
      "g": 0,
      "b": 0
    }
  },
  {
    "name": "Ebetsu",
    "lat": 43.1161,
    "lon": 141.5462,
    "x": 263,
    "y": 77,
    "color": {
      "r": 0,
      "g": 28,
      "b": 223
    }
  },
  {
    "name": "Esashi",
    "lat": 41.8691,
    "lon": 140.127,
    "x": 234,
    "y": 107,
    "color": {
      "r": 0,
      "g": 0,
      "b": 205
    }
  },
  {
    "name": "Ikeda",
    "lat": 42.9283,
    "lon": 143.4483,
    "x": 302,
    "y": 81,
    "color": {
      "r": 0,
      "g": 0,
      "b": 205
    }
  },
  {
    "name": "Numakawa",
    "lat": 45.2525,
    "lon": 141.8531,
    "x": 269,
    "y": 23,
    "color": {
      "r": 0,
      "g": 0,
      "b": 205
    }
  },
  {
    "name": "Numata",
    "lat": 43.8203,
    "lon": 141.9397,
    "x": 271,
    "y": 59,
    "color": {
      "r": 0,
      "g": 50,
      "b": 236
    }
  },
  {
    "name": "Numata",
    "lat": 43.8007,
    "lon": 141.9342,
    "x": 271,
    "y": 60,
    "color": {
      "r": 0,
      "g": 50,
      "b": 236
    }
  },
  {
    "name": "Tomari",
    "lat": 43.0527,
    "lon": 140.5017,
    "x": 242,
    "y": 78,
    "color": {
      "r": 0,
      "g": 0,
      "b": 205
    }
  },
  {
    "name": "Tsubetsu",
    "lat": 43.7055,
    "lon": 144.0272,
    "x": 313,
    "y": 62,
    "color": {
      "r": 0,
      "g": 0,
      "b": 205
    }
  },
  {
    "name": "Hamanaka",
    "lat": 43.2084,
    "lon": 145.1168,
    "x": 336,
    "y": 74,
    "color": {
      "r": 0,
      "g": 0,
      "b": 0
    }
  },
  {
    "name": "Hamanaka",
    "lat": 43.0767,
    "lon": 145.1296,
    "x": 336,
    "y": 78,
    "color": {
      "r": 0,
      "g": 0,
      "b": 0
    }
  },
  {
    "name": "Hamamasu",
    "lat": 43.6015,
    "lon": 141.3882,
    "x": 260,
    "y": 65,
    "color": {
      "r": 0,
      "g": 0,
      "b": 205
    }
  },
  {
    "name": "Hamatonbetsu",
    "lat": 45.1001,
    "lon": 142.4307,
    "x": 281,
    "y": 28,
    "color": {
      "r": 0,
      "g": 0,
      "b": 205
    }
  },
  {
    "name": "Hamatonbetsu",
    "lat": 45.1266,
    "lon": 142.3519,
    "x": 279,
    "y": 27,
    "color": {
      "r": 0,
      "g": 0,
      "b": 205
    }
  },
  {
    "name": "Urahoro",
    "lat": 42.8087,
    "lon": 143.6588,
    "x": 306,
    "y": 84,
    "color": {
      "r": 0,
      "g": 0,
      "b": 205
    }
  },
  {
    "name": "Urakawa",
    "lat": 42.1678,
    "lon": 142.7673,
    "x": 288,
    "y": 100,
    "color": {
      "r": 0,
      "g": 0,
      "b": 205
    }
  },
  {
    "name": "Fukagawa",
    "lat": 43.7243,
    "lon": 142.0525,
    "x": 273,
    "y": 62,
    "color": {
      "r": 0,
      "g": 0,
      "b": 205
    }
  },
  {
    "name": "Northern Fukagawa",
    "lat": 43.8243,
    "lon": 142.1594,
    "x": 275,
    "y": 59,
    "color": {
      "r": 0,
      "g": 0,
      "b": 205
    }
  },
  {
    "name": "Southern Fukagawa",
    "lat": 43.6948,
    "lon": 142.0776,
    "x": 274,
    "y": 62,
    "color": {
      "r": 0,
      "g": 0,
      "b": 205
    }
  },
  {
    "name": "Shimizu",
    "lat": 42.8742,
    "lon": 142.883,
    "x": 290,
    "y": 83,
    "color": {
      "r": 0,
      "g": 0,
      "b": 205
    }
  },
  {
    "name": "Minatomachi",
    "lat": 44.1486,
    "lon": 141.6642,
    "x": 265,
    "y": 51,
    "color": {
      "r": 0,
      "g": 0,
      "b": 205
    }
  },
  {
    "name": "Yūbetsu",
    "lat": 44.2199,
    "lon": 143.6155,
    "x": 305,
    "y": 50,
    "color": {
      "r": 0,
      "g": 0,
      "b": 205
    }
  },
  {
    "name": "Northern Yūbetsu",
    "lat": 44.2146,
    "lon": 143.6202,
    "x": 305,
    "y": 50,
    "color": {
      "r": 0,
      "g": 0,
      "b": 205
    }
  },
  {
    "name": "Yunotai",
    "lat": 41.7492,
    "lon": 140.2512,
    "x": 237,
    "y": 110,
    "color": {
      "r": 0,
      "g": 0,
      "b": 205
    }
  },
  {
    "name": "Takinoue",
    "lat": 44.1915,
    "lon": 143.0774,
    "x": 294,
    "y": 50,
    "color": {
      "r": 0,
      "g": 0,
      "b": 205
    }
  },
  {
    "name": "Northern Takinoue",
    "lat": 44.192,
    "lon": 143.0767,
    "x": 294,
    "y": 50,
    "color": {
      "r": 0,
      "g": 0,
      "b": 205
    }
  },
  {
    "name": "Southern Takinoue",
    "lat": 44.1146,
    "lon": 143.0111,
    "x": 293,
    "y": 52,
    "color": {
      "r": 0,
      "g": 0,
      "b": 205
    }
  },
  {
    "name": "Takigawa",
    "lat": 43.5524,
    "lon": 141.9175,
    "x": 270,
    "y": 65,
    "color": {
      "r": 0,
      "g": 0,
      "b": 205
    }
  },
  {
    "name": "Setana",
    "lat": 42.4502,
    "lon": 139.8537,
    "x": 228,
    "y": 93,
    "color": {
      "r": 0,
      "g": 0,
      "b": 205
    }
  },
  {
    "name": "Kumaishi",
    "lat": 42.1344,
    "lon": 140.004,
    "x": 232,
    "y": 101,
    "color": {
      "r": 0,
      "g": 0,
      "b": 205
    }
  },
  {
    "name": "Kumaishi",
    "lat": 42.1297,
    "lon": 139.9815,
    "x": 231,
    "y": 101,
    "color": {
      "r": 0,
      "g": 0,
      "b": 205
    }
  },
  {
    "name": "Sarufutsu",
    "lat": 45.3299,
    "lon": 142.1077,
    "x": 274,
    "y": 22,
    "color": {
      "r": 0,
      "g": 0,
      "b": 205
    }
  },
  {
    "name": "Northern Sarufutsu",
    "lat": 45.3346,
    "lon": 142.1185,
    "x": 275,
    "y": 22,
    "color": {
      "r": 0,
      "g": 0,
      "b": 205
    }
  },
  {
    "name": "Southern Sarufutsu",
    "lat": 45.2163,
    "lon": 142.2254,
    "x": 277,
    "y": 25,
    "color": {
      "r": 0,
      "g": 0,
      "b": 205
    }
  },
  {
    "name": "Seika",
    "lat": 42.6181,
    "lon": 143.4209,
    "x": 301,
    "y": 89,
    "color": {
      "r": 0,
      "g": 0,
      "b": 0
    }
  },
  {
    "name": "Yuni",
    "lat": 42.9986,
    "lon": 141.7904,
    "x": 268,
    "y": 80,
    "color": {
      "r": 0,
      "g": 0,
      "b": 205
    }
  },
  {
    "name": "Rumoi",
    "lat": 43.9407,
    "lon": 141.637,
    "x": 265,
    "y": 56,
    "color": {
      "r": 0,
      "g": 0,
      "b": 205
    }
  },
  {
    "name": "Rubeshibe",
    "lat": 43.7419,
    "lon": 143.4514,
    "x": 302,
    "y": 61,
    "color": {
      "r": 0,
      "g": 0,
      "b": 205
    }
  },
  {
    "name": "Rubeshibe",
    "lat": 43.7849,
    "lon": 143.6072,
    "x": 305,
    "y": 60,
    "color": {
      "r": 0,
      "g": 0,
      "b": 205
    }
  },
  {
    "name": "Noboribetsu",
    "lat": 42.4211,
    "lon": 141.0814,
    "x": 255,
    "y": 94,
    "color": {
      "r": 0,
      "g": 0,
      "b": 205
    }
  },
  {
    "name": "Shirataki",
    "lat": 43.8494,
    "lon": 143.0861,
    "x": 294,
    "y": 59,
    "color": {
      "r": 0,
      "g": 0,
      "b": 205
    }
  },
  {
    "name": "Shirataki",
    "lat": 43.8785,
    "lon": 143.1747,
    "x": 296,
    "y": 58,
    "color": {
      "r": 0,
      "g": 0,
      "b": 205
    }
  },
  {
    "name": "Shiranuka",
    "lat": 42.9581,
    "lon": 144.0697,
    "x": 314,
    "y": 81,
    "color": {
      "r": 0,
      "g": 0,
      "b": 205
    }
  },
  {
    "name": "Northern Shiranuka",
    "lat": 43.1603,
    "lon": 143.8936,
    "x": 311,
    "y": 76,
    "color": {
      "r": 0,
      "g": 0,
      "b": 205
    }
  },
  {
    "name": "Southern Shiranuka",
    "lat": 42.9856,
    "lon": 143.9841,
    "x": 313,
    "y": 80,
    "color": {
      "r": 0,
      "g": 0,
      "b": 205
    }
  },
  {
    "name": "Shiraoi",
    "lat": 42.5629,
    "lon": 141.3497,
    "x": 259,
    "y": 90,
    "color": {
      "r": 0,
      "g": 0,
      "b": 205
    }
  },
  {
    "name": "Shiraoi",
    "lat": 42.5627,
    "lon": 141.3499,
    "x": 259,
    "y": 90,
    "color": {
      "r": 0,
      "g": 0,
      "b": 205
    }
  },
  {
    "name": "Meguro",
    "lat": 42.1287,
    "lon": 143.3153,
    "x": 299,
    "y": 101,
    "color": {
      "r": 0,
      "g": 0,
      "b": 205
    }
  },
  {
    "name": "Chokubetsu",
    "lat": 42.8542,
    "lon": 143.8579,
    "x": 310,
    "y": 83,
    "color": {
      "r": 0,
      "g": 0,
      "b": 0
    }
  },
  {
    "name": "Aidomari",
    "lat": 44.106,
    "lon": 145.2478,
    "x": 338,
    "y": 52,
    "color": {
      "r": 0,
      "g": 0,
      "b": 0
    }
  },
  {
    "name": "Makkari",
    "lat": 42.763,
    "lon": 140.8084,
    "x": 248,
    "y": 85,
    "color": {
      "r": 0,
      "g": 0,
      "b": 205
    }
  },
  {
    "name": "Shiriuchi",
    "lat": 41.5977,
    "lon": 140.4207,
    "x": 240,
    "y": 114,
    "color": {
      "r": 0,
      "g": 0,
      "b": 205
    }
  },
  {
    "name": "Ishikari",
    "lat": 43.1721,
    "lon": 141.3046,
    "x": 258,
    "y": 75,
    "color": {
      "r": 0,
      "g": 72,
      "b": 250
    }
  },
  {
    "name": "Sunagawa",
    "lat": 43.5138,
    "lon": 141.909,
    "x": 270,
    "y": 67,
    "color": {
      "r": 0,
      "g": 0,
      "b": 205
    }
  },
  {
    "name": "Reibun",
    "lat": 45.3049,
    "lon": 141.0475,
    "x": 253,
    "y": 23,
    "color": {
      "r": 0,
      "g": 0,
      "b": 205
    }
  },
  {
    "name": "Kamoenai",
    "lat": 43.1449,
    "lon": 140.4355,
    "x": 240,
    "y": 76,
    "color": {
      "r": 0,
      "g": 0,
      "b": 205
    }
  },
  {
    "name": "Fukushima",
    "lat": 41.4862,
    "lon": 140.247,
    "x": 236,
    "y": 117,
    "color": {
      "r": 0,
      "g": 0,
      "b": 205
    }
  },
  {
    "name": "Wakkanai",
    "lat": 45.4163,
    "lon": 141.672,
    "x": 265,
    "y": 20,
    "color": {
      "r": 0,
      "g": 0,
      "b": 0
    }
  },
  {
    "name": "Northern Wakkanai",
    "lat": 45.4883,
    "lon": 141.885,
    "x": 270,
    "y": 18,
    "color": {
      "r": 0,
      "g": 0,
      "b": 205
    }
  },
  {
    "name": "Eastern  Wakkanai",
    "lat": 45.2303,
    "lon": 141.8806,
    "x": 270,
    "y": 25,
    "color": {
      "r": 0,
      "g": 0,
      "b": 205
    }
  },
  {
    "name": "Western  Wakkanai",
    "lat": 45.2531,
    "lon": 141.6334,
    "x": 265,
    "y": 24,
    "color": {
      "r": 0,
      "g": 0,
      "b": 0
    }
  },
  {
    "name": "Inaho",
    "lat": 42.2397,
    "lon": 139.552,
    "x": 222,
    "y": 98,
    "color": {
      "r": 0,
      "g": 0,
      "b": 205
    }
  },
  {
    "name": "Hobetsu",
    "lat": 42.8714,
    "lon": 142.1285,
    "x": 275,
    "y": 83,
    "color": {
      "r": 0,
      "g": 0,
      "b": 205
    }
  },
  {
    "name": "Hobetsu",
    "lat": 42.7608,
    "lon": 142.1346,
    "x": 275,
    "y": 85,
    "color": {
      "r": 0,
      "g": 0,
      "b": 205
    }
  },
  {
    "name": "Shakotan",
    "lat": 43.2921,
    "lon": 140.6014,
    "x": 244,
    "y": 72,
    "color": {
      "r": 0,
      "g": 0,
      "b": 205
    }
  },
  {
    "name": "Nukabira",
    "lat": 43.3191,
    "lon": 143.3049,
    "x": 299,
    "y": 72,
    "color": {
      "r": 0,
      "g": 0,
      "b": 205
    }
  },
  {
    "name": "Monbetsu",
    "lat": 44.3557,
    "lon": 143.3538,
    "x": 300,
    "y": 46,
    "color": {
      "r": 0,
      "g": 0,
      "b": 205
    }
  },
  {
    "name": "Nosappu",
    "lat": 43.368,
    "lon": 145.8026,
    "x": 350,
    "y": 70,
    "color": {
      "r": 0,
      "g": 0,
      "b": 205
    }
  },
  {
    "name": "Abashiri",
    "lat": 44.0201,
    "lon": 144.2729,
    "x": 318,
    "y": 54,
    "color": {
      "r": 0,
      "g": 0,
      "b": 205
    }
  },
  {
    "name": "Oketo",
    "lat": 43.6707,
    "lon": 143.578,
    "x": 304,
    "y": 63,
    "color": {
      "r": 0,
      "g": 0,
      "b": 205
    }
  },
  {
    "name": "Eastern Oketo",
    "lat": 43.6352,
    "lon": 143.51,
    "x": 303,
    "y": 64,
    "color": {
      "r": 0,
      "g": 0,
      "b": 205
    }
  },
  {
    "name": "Rausu",
    "lat": 44.0202,
    "lon": 145.1886,
    "x": 337,
    "y": 54,
    "color": {
      "r": 0,
      "g": 0,
      "b": 205
    }
  },
  {
    "name": "Bibai",
    "lat": 43.3332,
    "lon": 141.8553,
    "x": 269,
    "y": 71,
    "color": {
      "r": 0,
      "g": 0,
      "b": 205
    }
  },
  {
    "name": "Bihoro",
    "lat": 43.7228,
    "lon": 144.1835,
    "x": 317,
    "y": 62,
    "color": {
      "r": 0,
      "g": 0,
      "b": 0
    }
  },
  {
    "name": "Bihoro",
    "lat": 43.8244,
    "lon": 144.1087,
    "x": 315,
    "y": 59,
    "color": {
      "r": 0,
      "g": 0,
      "b": 205
    }
  },
  {
    "name": "Bifuka",
    "lat": 44.4806,
    "lon": 142.3427,
    "x": 279,
    "y": 43,
    "color": {
      "r": 0,
      "g": 0,
      "b": 205
    }
  },
  {
    "name": "Northern Bifuka",
    "lat": 44.5973,
    "lon": 142.3036,
    "x": 278,
    "y": 40,
    "color": {
      "r": 0,
      "g": 0,
      "b": 205
    }
  },
  {
    "name": "Eastern  Bifuka",
    "lat": 44.5509,
    "lon": 142.5736,
    "x": 284,
    "y": 41,
    "color": {
      "r": 0,
      "g": 0,
      "b": 205
    }
  },
  {
    "name": "Western  Bifuka",
    "lat": 44.4732,
    "lon": 142.2725,
    "x": 278,
    "y": 43,
    "color": {
      "r": 0,
      "g": 0,
      "b": 205
    }
  },
  {
    "name": "Biei",
    "lat": 43.5885,
    "lon": 142.4675,
    "x": 282,
    "y": 65,
    "color": {
      "r": 0,
      "g": 0,
      "b": 205
    }
  },
  {
    "name": "Eastern Biei",
    "lat": 43.5038,
    "lon": 142.6006,
    "x": 284,
    "y": 67,
    "color": {
      "r": 0,
      "g": 0,
      "b": 205
    }
  },
  {
    "name": "Western Biei",
    "lat": 43.5113,
    "lon": 142.3906,
    "x": 280,
    "y": 67,
    "color": {
      "r": 0,
      "g": 0,
      "b": 205
    }
  },
  {
    "name": "Haboro",
    "lat": 44.3611,
    "lon": 141.6978,
    "x": 266,
    "y": 46,
    "color": {
      "r": 0,
      "g": 0,
      "b": 205
    }
  },
  {
    "name": "Okoppe",
    "lat": 44.4796,
    "lon": 143.1277,
    "x": 295,
    "y": 43,
    "color": {
      "r": 0,
      "g": 0,
      "b": 205
    }
  },
  {
    "name": "Eastern Okoppe",
    "lat": 44.3843,
    "lon": 143.2407,
    "x": 297,
    "y": 46,
    "color": {
      "r": 0,
      "g": 0,
      "b": 205
    }
  },
  {
    "name": "Western Okoppe",
    "lat": 44.4234,
    "lon": 143.0264,
    "x": 293,
    "y": 45,
    "color": {
      "r": 0,
      "g": 0,
      "b": 205
    }
  },
  {
    "name": "Funadomari",
    "lat": 45.4408,
    "lon": 141.0367,
    "x": 253,
    "y": 20,
    "color": {
      "r": 0,
      "g": 0,
      "b": 205
    }
  },
  {
    "name": "Ashibetsu",
    "lat": 43.5199,
    "lon": 142.1914,
    "x": 276,
    "y": 67,
    "color": {
      "r": 0,
      "g": 0,
      "b": 0
    }
  },
  {
    "name": "Memuro",
    "lat": 42.892,
    "lon": 143.0603,
    "x": 294,
    "y": 82,
    "color": {
      "r": 0,
      "g": 0,
      "b": 205
    }
  },
  {
    "name": "Tomakomai",
    "lat": 42.6344,
    "lon": 141.6057,
    "x": 264,
    "y": 88,
    "color": {
      "r": 0,
      "g": 50,
      "b": 236
    }
  },
  {
    "name": "Ochiishi",
    "lat": 43.1948,
    "lon": 145.5209,
    "x": 344,
    "y": 75,
    "color": {
      "r": 0,
      "g": 0,
      "b": 205
    }
  },
  {
    "name": "Kunbetsu",
    "lat": 43.7938,
    "lon": 145.0565,
    "x": 334,
    "y": 60,
    "color": {
      "r": 0,
      "g": 0,
      "b": 0
    }
  },
  {
    "name": "Rankoshi",
    "lat": 42.8309,
    "lon": 140.4831,
    "x": 241,
    "y": 84,
    "color": {
      "r": 0,
      "g": 0,
      "b": 205
    }
  },
  {
    "name": "Rankoshi",
    "lat": 42.8051,
    "lon": 140.5302,
    "x": 242,
    "y": 84,
    "color": {
      "r": 0,
      "g": 0,
      "b": 205
    }
  },
  {
    "name": "Nishiokoppe",
    "lat": 44.3287,
    "lon": 142.9447,
    "x": 291,
    "y": 47,
    "color": {
      "r": 0,
      "g": 0,
      "b": 205
    }
  },
  {
    "name": "Toyotomi",
    "lat": 45.1019,
    "lon": 141.7834,
    "x": 269,
    "y": 28,
    "color": {
      "r": 0,
      "g": 0,
      "b": 205
    }
  },
  {
    "name": "Toyotomi",
    "lat": 45.103,
    "lon": 141.7667,
    "x": 266,
    "y": 28,
    "color": {
      "r": 0,
      "g": 0,
      "b": 205
    }
  },
  {
    "name": "Toyoura",
    "lat": 42.6415,
    "lon": 140.665,
    "x": 245,
    "y": 88,
    "color": {
      "r": 0,
      "g": 0,
      "b": 205
    }
  },
  {
    "name": "Toyoura",
    "lat": 42.5894,
    "lon": 140.6436,
    "x": 245,
    "y": 90,
    "color": {
      "r": 0,
      "g": 0,
      "b": 205
    }
  },
  {
    "name": "Toyokoro",
    "lat": 42.8114,
    "lon": 143.5203,
    "x": 303,
    "y": 84,
    "color": {
      "r": 0,
      "g": 0,
      "b": 205
    }
  },
  {
    "name": "Akaigawa",
    "lat": 43.0841,
    "lon": 140.8202,
    "x": 248,
    "y": 77,
    "color": {
      "r": 0,
      "g": 0,
      "b": 205
    }
  },
  {
    "name": "Akaigawa",
    "lat": 43.0842,
    "lon": 140.8199,
    "x": 248,
    "y": 77,
    "color": {
      "r": 0,
      "g": 0,
      "b": 205
    }
  },
  {
    "name": "Ashoro",
    "lat": 43.2436,
    "lon": 143.5544,
    "x": 304,
    "y": 74,
    "color": {
      "r": 0,
      "g": 0,
      "b": 205
    }
  },
  {
    "name": "Eastern Ashoro",
    "lat": 43.3822,
    "lon": 143.8983,
    "x": 311,
    "y": 70,
    "color": {
      "r": 0,
      "g": 0,
      "b": 205
    }
  },
  {
    "name": "Western Ashoro",
    "lat": 43.2708,
    "lon": 143.4317,
    "x": 301,
    "y": 73,
    "color": {
      "r": 0,
      "g": 0,
      "b": 205
    }
  },
  {
    "name": "Shizunainoya",
    "lat": 42.4194,
    "lon": 142.4992,
    "x": 282,
    "y": 94,
    "color": {
      "r": 0,
      "g": 0,
      "b": 0
    }
  },
  {
    "name": "Oiwake",
    "lat": 42.8739,
    "lon": 141.8191,
    "x": 268,
    "y": 83,
    "color": {
      "r": 0,
      "g": 0,
      "b": 205
    }
  },
  {
    "name": "Oiwake",
    "lat": 42.8741,
    "lon": 141.8204,
    "x": 268,
    "y": 83,
    "color": {
      "r": 0,
      "g": 0,
      "b": 205
    }
  },
  {
    "name": "Tappu",
    "lat": 44.0489,
    "lon": 141.8573,
    "x": 269,
    "y": 54,
    "color": {
      "r": 0,
      "g": 0,
      "b": 205
    }
  },
  {
    "name": "Enbetsu",
    "lat": 44.6359,
    "lon": 141.8187,
    "x": 268,
    "y": 39,
    "color": {
      "r": 0,
      "g": 0,
      "b": 205
    }
  },
  {
    "name": "Enbetsu",
    "lat": 44.7195,
    "lon": 141.8284,
    "x": 269,
    "y": 37,
    "color": {
      "r": 0,
      "g": 7,
      "b": 209
    }
  },
  {
    "name": "Engaru",
    "lat": 44.0921,
    "lon": 143.5336,
    "x": 303,
    "y": 53,
    "color": {
      "r": 0,
      "g": 0,
      "b": 205
    }
  },
  {
    "name": "Kushiro",
    "lat": 42.9845,
    "lon": 144.3824,
    "x": 321,
    "y": 80,
    "color": {
      "r": 0,
      "g": 85,
      "b": 238
    }
  },
  {
    "name": "Oshamanbe",
    "lat": 42.4944,
    "lon": 140.3539,
    "x": 239,
    "y": 92,
    "color": {
      "r": 0,
      "g": 43,
      "b": 231
    }
  },
  {
    "name": "Monbetsu",
    "lat": 42.4825,
    "lon": 142.0543,
    "x": 273,
    "y": 93,
    "color": {
      "r": 0,
      "g": 0,
      "b": 205
    }
  },
  {
    "name": "Eastern Monbetsu",
    "lat": 42.5934,
    "lon": 142.3521,
    "x": 279,
    "y": 89,
    "color": {
      "r": 0,
      "g": 0,
      "b": 0
    }
  },
  {
    "name": "Western Monbetsu",
    "lat": 42.5126,
    "lon": 142.0381,
    "x": 273,
    "y": 91,
    "color": {
      "r": 0,
      "g": 0,
      "b": 205
    }
  },
  {
    "name": "Akan",
    "lat": 43.1141,
    "lon": 144.123,
    "x": 315,
    "y": 77,
    "color": {
      "r": 0,
      "g": 0,
      "b": 205
    }
  },
  {
    "name": "Northern Akan",
    "lat": 43.4361,
    "lon": 144.0844,
    "x": 315,
    "y": 69,
    "color": {
      "r": 0,
      "g": 0,
      "b": 205
    }
  },
  {
    "name": "Southern Akan",
    "lat": 43.1142,
    "lon": 144.123,
    "x": 315,
    "y": 77,
    "color": {
      "r": 0,
      "g": 0,
      "b": 205
    }
  },
  {
    "name": "Akan Lake",
    "lat": 43.4369,
    "lon": 144.0855,
    "x": 315,
    "y": 69,
    "color": {
      "r": 0,
      "g": 0,
      "b": 205
    }
  },
  {
    "name": "Rikubetsu",
    "lat": 43.4683,
    "lon": 143.683,
    "x": 306,
    "y": 68,
    "color": {
      "r": 0,
      "g": 0,
      "b": 205
    }
  },
  {
    "name": "Rikubetsu",
    "lat": 43.4716,
    "lon": 143.7483,
    "x": 308,
    "y": 68,
    "color": {
      "r": 0,
      "g": 0,
      "b": 205
    }
  },
  {
    "name": "Ofuyu",
    "lat": 43.7735,
    "lon": 141.3685,
    "x": 259,
    "y": 61,
    "color": {
      "r": 0,
      "g": 14,
      "b": 214
    }
  },
  {
    "name": "Ōmu",
    "lat": 44.5276,
    "lon": 142.8444,
    "x": 289,
    "y": 42,
    "color": {
      "r": 0,
      "g": 0,
      "b": 205
    }
  },
  {
    "name": "Ōmu",
    "lat": 44.582,
    "lon": 142.9644,
    "x": 292,
    "y": 41,
    "color": {
      "r": 0,
      "g": 0,
      "b": 0
    }
  },
  {
    "name": "Aonae",
    "lat": 42.0661,
    "lon": 139.4515,
    "x": 220,
    "y": 102,
    "color": {
      "r": 0,
      "g": 0,
      "b": 205
    }
  },
  {
    "name": "Shizunai",
    "lat": 42.3498,
    "lon": 142.3572,
    "x": 279,
    "y": 95,
    "color": {
      "r": 0,
      "g": 0,
      "b": 205
    }
  },
  {
    "name": "Shizunai",
    "lat": 42.3414,
    "lon": 142.3688,
    "x": 280,
    "y": 97,
    "color": {
      "r": 0,
      "g": 0,
      "b": 205
    }
  },
  {
    "name": "Otoineppu",
    "lat": 44.7745,
    "lon": 142.2542,
    "x": 277,
    "y": 36,
    "color": {
      "r": 0,
      "g": 0,
      "b": 205
    }
  },
  {
    "name": "Otoineppu",
    "lat": 44.7284,
    "lon": 142.2636,
    "x": 279,
    "y": 37,
    "color": {
      "r": 0,
      "g": 0,
      "b": 205
    }
  },
  {
    "name": "Fureppu",
    "lat": 44.7406,
    "lon": 142.7633,
    "x": 288,
    "y": 37,
    "color": {
      "r": 0,
      "g": 0,
      "b": 0
    }
  },
  {
    "name": "Mukawa",
    "lat": 42.575,
    "lon": 141.9279,
    "x": 271,
    "y": 90,
    "color": {
      "r": 0,
      "g": 0,
      "b": 0
    }
  },
  {
    "name": "Tsurui",
    "lat": 43.233,
    "lon": 144.3248,
    "x": 319,
    "y": 74,
    "color": {
      "r": 0,
      "g": 0,
      "b": 205
    }
  },
  {
    "name": "Southern Tsurui",
    "lat": 43.1359,
    "lon": 144.3274,
    "x": 320,
    "y": 76,
    "color": {
      "r": 0,
      "g": 0,
      "b": 205
    }
  },
  {
    "name": "Eastern  Tsurui",
    "lat": 43.22,
    "lon": 144.4285,
    "x": 322,
    "y": 74,
    "color": {
      "r": 0,
      "g": 0,
      "b": 205
    }
  },
  {
    "name": "Western  Tsurui",
    "lat": 43.2556,
    "lon": 144.2338,
    "x": 318,
    "y": 73,
    "color": {
      "r": 0,
      "g": 0,
      "b": 205
    }
  },
  {
    "name": "Shikabe",
    "lat": 42.0436,
    "lon": 140.8064,
    "x": 248,
    "y": 103,
    "color": {
      "r": 0,
      "g": 0,
      "b": 0
    }
  },
  {
    "name": "Kuromatsunai",
    "lat": 42.6104,
    "lon": 140.4841,
    "x": 241,
    "y": 89,
    "color": {
      "r": 0,
      "g": 0,
      "b": 205
    }
  },
  {
    "name": "Kuromatsunai",
    "lat": 42.6679,
    "lon": 140.3049,
    "x": 238,
    "y": 88,
    "color": {
      "r": 0,
      "g": 0,
      "b": 205
    }
  },
  {
    "name": "Shimofusa",
    "lat": 35.7966,
    "lon": 140.0206,
    "x": 231,
    "y": 255,
    "color": {
      "r": 0,
      "g": 0,
      "b": 0
    }
  },
  {
    "name": "Sakura",
    "lat": 35.7234,
    "lon": 140.2267,
    "x": 236,
    "y": 258,
    "color": {
      "r": 0,
      "g": 0,
      "b": 205
    }
  },
  {
    "name": "Sawara",
    "lat": 35.9007,
    "lon": 140.4905,
    "x": 241,
    "y": 254,
    "color": {
      "r": 0,
      "g": 57,
      "b": 240
    }
  },
  {
    "name": "Yōkaichiba",
    "lat": 35.7077,
    "lon": 140.568,
    "x": 244,
    "y": 258,
    "color": {
      "r": 0,
      "g": 0,
      "b": 205
    }
  },
  {
    "name": "Katsuura",
    "lat": 35.1577,
    "lon": 140.3222,
    "x": 238,
    "y": 272,
    "color": {
      "r": 0,
      "g": 21,
      "b": 218
    }
  },
  {
    "name": "Northern Katsuura",
    "lat": 35.181,
    "lon": 140.2655,
    "x": 236,
    "y": 272,
    "color": {
      "r": 0,
      "g": 0,
      "b": 205
    }
  },
  {
    "name": "Eastern  Katsuura",
    "lat": 35.1714,
    "lon": 140.3398,
    "x": 238,
    "y": 272,
    "color": {
      "r": 0,
      "g": 21,
      "b": 218
    }
  },
  {
    "name": "Sōsa",
    "lat": 35.7215,
    "lon": 140.5046,
    "x": 242,
    "y": 257,
    "color": {
      "r": 0,
      "g": 0,
      "b": 205
    }
  },
  {
    "name": "Chikura",
    "lat": 34.9707,
    "lon": 139.9459,
    "x": 231,
    "y": 276,
    "color": {
      "r": 0,
      "g": 0,
      "b": 205
    }
  },
  {
    "name": "Chiba",
    "lat": 35.5458,
    "lon": 140.2417,
    "x": 236,
    "y": 262,
    "color": {
      "r": 0,
      "g": 0,
      "b": 205
    }
  },
  {
    "name": "Chiba",
    "lat": 35.6082,
    "lon": 140.1022,
    "x": 234,
    "y": 261,
    "color": {
      "r": 0,
      "g": 57,
      "b": 240
    }
  },
  {
    "name": "Anesaki",
    "lat": 35.4769,
    "lon": 140.0489,
    "x": 232,
    "y": 264,
    "color": {
      "r": 0,
      "g": 36,
      "b": 227
    }
  },
  {
    "name": "Futtsu",
    "lat": 35.3445,
    "lon": 139.8554,
    "x": 228,
    "y": 266,
    "color": {
      "r": 0,
      "g": 153,
      "b": 183
    }
  },
  {
    "name": "Futtsu",
    "lat": 35.3083,
    "lon": 139.8598,
    "x": 230,
    "y": 269,
    "color": {
      "r": 0,
      "g": 0,
      "b": 205
    }
  },
  {
    "name": "Misaki",
    "lat": 35.2999,
    "lon": 140.3867,
    "x": 239,
    "y": 268,
    "color": {
      "r": 0,
      "g": 0,
      "b": 205
    }
  },
  {
    "name": "Shijō",
    "lat": 35.2988,
    "lon": 140.0755,
    "x": 233,
    "y": 268,
    "color": {
      "r": 0,
      "g": 0,
      "b": 205
    }
  },
  {
    "name": "Northern Ichikawa",
    "lat": 35.766,
    "lon": 139.9665,
    "x": 232,
    "y": 258,
    "color": {
      "r": 0,
      "g": 0,
      "b": 205
    }
  },
  {
    "name": "Narita",
    "lat": 35.8307,
    "lon": 140.298,
    "x": 238,
    "y": 255,
    "color": {
      "r": 0,
      "g": 0,
      "b": 205
    }
  },
  {
    "name": "Narita",
    "lat": 35.7801,
    "lon": 140.3067,
    "x": 238,
    "y": 257,
    "color": {
      "r": 0,
      "g": 0,
      "b": 205
    }
  },
  {
    "name": "Kisarazu",
    "lat": 35.3738,
    "lon": 139.9159,
    "x": 231,
    "y": 266,
    "color": {
      "r": 0,
      "g": 7,
      "b": 209
    }
  },
  {
    "name": "Kisarazu Yakusho",
    "lat": 35.3766,
    "lon": 139.9151,
    "x": 230,
    "y": 267,
    "color": {
      "r": 0,
      "g": 153,
      "b": 183
    }
  },
  {
    "name": "Tōgane",
    "lat": 35.5727,
    "lon": 140.3333,
    "x": 238,
    "y": 262,
    "color": {
      "r": 0,
      "g": 0,
      "b": 205
    }
  },
  {
    "name": "Matsudo",
    "lat": 35.7868,
    "lon": 139.9031,
    "x": 229,
    "y": 256,
    "color": {
      "r": 0,
      "g": 0,
      "b": 205
    }
  },
  {
    "name": "Urayasu",
    "lat": 35.6537,
    "lon": 139.9023,
    "x": 230,
    "y": 261,
    "color": {
      "r": 0,
      "g": 99,
      "b": 227
    }
  },
  {
    "name": "Shiroi",
    "lat": 35.7943,
    "lon": 140.0564,
    "x": 234,
    "y": 256,
    "color": {
      "r": 0,
      "g": 64,
      "b": 245
    }
  },
  {
    "name": "Shirahama",
    "lat": 34.9083,
    "lon": 139.8979,
    "x": 229,
    "y": 279,
    "color": {
      "r": 0,
      "g": 0,
      "b": 205
    }
  },
  {
    "name": "Inage-Ward",
    "lat": 35.6335,
    "lon": 140.0784,
    "x": 232,
    "y": 259,
    "color": {
      "r": 0,
      "g": 57,
      "b": 240
    }
  },
  {
    "name": "Mobara",
    "lat": 35.4327,
    "lon": 140.2905,
    "x": 237,
    "y": 265,
    "color": {
      "r": 0,
      "g": 0,
      "b": 205
    }
  },
  {
    "name": "Hasunuma",
    "lat": 35.5943,
    "lon": 140.5107,
    "x": 242,
    "y": 261,
    "color": {
      "r": 0,
      "g": 21,
      "b": 218
    }
  },
  {
    "name": "Hasunuma",
    "lat": 35.5877,
    "lon": 140.4971,
    "x": 242,
    "y": 261,
    "color": {
      "r": 0,
      "g": 21,
      "b": 218
    }
  },
  {
    "name": "Gyōtoku",
    "lat": 35.6947,
    "lon": 139.9176,
    "x": 230,
    "y": 260,
    "color": {
      "r": 0,
      "g": 99,
      "b": 227
    }
  },
  {
    "name": "Noda",
    "lat": 35.9595,
    "lon": 139.8733,
    "x": 229,
    "y": 252,
    "color": {
      "r": 0,
      "g": 72,
      "b": 250
    }
  },
  {
    "name": "Chōshi",
    "lat": 35.7358,
    "lon": 140.83,
    "x": 248,
    "y": 258,
    "color": {
      "r": 0,
      "g": 0,
      "b": 205
    }
  },
  {
    "name": "Central Chōshi",
    "lat": 35.7342,
    "lon": 140.823,
    "x": 248,
    "y": 258,
    "color": {
      "r": 0,
      "g": 0,
      "b": 205
    }
  },
  {
    "name": "Kyonan",
    "lat": 35.1105,
    "lon": 139.8351,
    "x": 228,
    "y": 273,
    "color": {
      "r": 0,
      "g": 0,
      "b": 205
    }
  },
  {
    "name": "Chōnan",
    "lat": 35.3872,
    "lon": 140.237,
    "x": 235,
    "y": 267,
    "color": {
      "r": 0,
      "g": 0,
      "b": 205
    }
  },
  {
    "name": "Yōrō",
    "lat": 35.2867,
    "lon": 140.1529,
    "x": 235,
    "y": 269,
    "color": {
      "r": 0,
      "g": 0,
      "b": 205
    }
  },
  {
    "name": "Tateyama",
    "lat": 34.9741,
    "lon": 139.8449,
    "x": 228,
    "y": 276,
    "color": {
      "r": 0,
      "g": 0,
      "b": 205
    }
  },
  {
    "name": "Western Tateyama",
    "lat": 34.9591,
    "lon": 139.7885,
    "x": 227,
    "y": 277,
    "color": {
      "r": 0,
      "g": 0,
      "b": 205
    }
  },
  {
    "name": "Kamogawa",
    "lat": 35.1384,
    "lon": 139.9649,
    "x": 231,
    "y": 272,
    "color": {
      "r": 0,
      "g": 0,
      "b": 205
    }
  },
  {
    "name": "Kamogawa",
    "lat": 35.1155,
    "lon": 140.1022,
    "x": 235,
    "y": 272,
    "color": {
      "r": 0,
      "g": 0,
      "b": 205
    }
  },
  {
    "name": "Southern Kamogawa",
    "lat": 35.0882,
    "lon": 140.0997,
    "x": 233,
    "y": 274,
    "color": {
      "r": 0,
      "g": 0,
      "b": 205
    }
  },
  {
    "name": "Susami",
    "lat": 33.5559,
    "lon": 135.5454,
    "x": 141,
    "y": 311,
    "color": {
      "r": 0,
      "g": 0,
      "b": 205
    }
  },
  {
    "name": "Susami",
    "lat": 33.5503,
    "lon": 135.4972,
    "x": 140,
    "y": 311,
    "color": {
      "r": 0,
      "g": 0,
      "b": 205
    }
  },
  {
    "name": "Kamitonda",
    "lat": 33.6894,
    "lon": 135.4396,
    "x": 139,
    "y": 308,
    "color": {
      "r": 0,
      "g": 0,
      "b": 205
    }
  },
  {
    "name": "Kushimoto",
    "lat": 33.472,
    "lon": 135.7835,
    "x": 146,
    "y": 313,
    "color": {
      "r": 0,
      "g": 28,
      "b": 223
    }
  },
  {
    "name": "Inami",
    "lat": 33.8248,
    "lon": 135.2172,
    "x": 134,
    "y": 305,
    "color": {
      "r": 0,
      "g": 0,
      "b": 205
    }
  },
  {
    "name": "Wakayama",
    "lat": 34.2868,
    "lon": 135.0714,
    "x": 131,
    "y": 293,
    "color": {
      "r": 0,
      "g": 0,
      "b": 205
    }
  },
  {
    "name": "Wakayama",
    "lat": 34.2288,
    "lon": 135.1694,
    "x": 133,
    "y": 295,
    "color": {
      "r": 0,
      "g": 0,
      "b": 205
    }
  },
  {
    "name": "Ōtō",
    "lat": 33.6948,
    "lon": 135.5953,
    "x": 142,
    "y": 308,
    "color": {
      "r": 0,
      "g": 0,
      "b": 205
    }
  },
  {
    "name": "Taiji",
    "lat": 33.5947,
    "lon": 135.946,
    "x": 149,
    "y": 310,
    "color": {
      "r": 0,
      "g": 0,
      "b": 205
    }
  },
  {
    "name": "Hirokawa",
    "lat": 33.9804,
    "lon": 135.2122,
    "x": 134,
    "y": 301,
    "color": {
      "r": 0,
      "g": 0,
      "b": 205
    }
  },
  {
    "name": "Gobō",
    "lat": 33.8908,
    "lon": 135.1524,
    "x": 133,
    "y": 303,
    "color": {
      "r": 0,
      "g": 0,
      "b": 205
    }
  },
  {
    "name": "Shingū",
    "lat": 33.7209,
    "lon": 135.9813,
    "x": 150,
    "y": 307,
    "color": {
      "r": 0,
      "g": 0,
      "b": 205
    }
  },
  {
    "name": "Arita",
    "lat": 34.0996,
    "lon": 135.116,
    "x": 132,
    "y": 298,
    "color": {
      "r": 0,
      "g": 0,
      "b": 205
    }
  },
  {
    "name": "Komori",
    "lat": 33.7053,
    "lon": 135.6397,
    "x": 143,
    "y": 308,
    "color": {
      "r": 0,
      "g": 0,
      "b": 205
    }
  },
  {
    "name": "Hongū",
    "lat": 33.8375,
    "lon": 135.7735,
    "x": 145,
    "y": 304,
    "color": {
      "r": 0,
      "g": 0,
      "b": 0
    }
  },
  {
    "name": "Shimizu",
    "lat": 34.0841,
    "lon": 135.4309,
    "x": 138,
    "y": 298,
    "color": {
      "r": 0,
      "g": 0,
      "b": 205
    }
  },
  {
    "name": "Tanabe",
    "lat": 33.7289,
    "lon": 135.3772,
    "x": 137,
    "y": 307,
    "color": {
      "r": 0,
      "g": 0,
      "b": 205
    }
  },
  {
    "name": "Hanazono",
    "lat": 34.1373,
    "lon": 135.5369,
    "x": 141,
    "y": 297,
    "color": {
      "r": 0,
      "g": 0,
      "b": 205
    }
  },
  {
    "name": "Nachikatsuura",
    "lat": 33.6072,
    "lon": 135.8619,
    "x": 147,
    "y": 310,
    "color": {
      "r": 0,
      "g": 0,
      "b": 205
    }
  },
  {
    "name": "Naga",
    "lat": 34.3228,
    "lon": 135.4483,
    "x": 139,
    "y": 292,
    "color": {
      "r": 0,
      "g": 0,
      "b": 0
    }
  },
  {
    "name": "Naga",
    "lat": 34.2755,
    "lon": 135.4305,
    "x": 138,
    "y": 294,
    "color": {
      "r": 0,
      "g": 0,
      "b": 205
    }
  },
  {
    "name": "Nokami",
    "lat": 34.1314,
    "lon": 135.3244,
    "x": 136,
    "y": 297,
    "color": {
      "r": 0,
      "g": 0,
      "b": 205
    }
  },
  {
    "name": "Kōya",
    "lat": 34.216,
    "lon": 135.586,
    "x": 142,
    "y": 295,
    "color": {
      "r": 0,
      "g": 0,
      "b": 205
    }
  },
  {
    "name": "Ryūjin",
    "lat": 33.8938,
    "lon": 135.4883,
    "x": 140,
    "y": 303,
    "color": {
      "r": 0,
      "g": 0,
      "b": 205
    }
  },
  {
    "name": "Nakatsugawa",
    "lat": 35.9954,
    "lon": 138.801,
    "x": 207,
    "y": 251,
    "color": {
      "r": 0,
      "g": 0,
      "b": 205
    }
  },
  {
    "name": "Kuki",
    "lat": 36.072,
    "lon": 139.6968,
    "x": 225,
    "y": 249,
    "color": {
      "r": 0,
      "g": 28,
      "b": 223
    }
  },
  {
    "name": "Naguri",
    "lat": 35.9118,
    "lon": 139.1485,
    "x": 214,
    "y": 253,
    "color": {
      "r": 0,
      "g": 0,
      "b": 205
    }
  },
  {
    "name": "Ōmiya",
    "lat": 35.9065,
    "lon": 139.6481,
    "x": 224,
    "y": 254,
    "color": {
      "r": 0,
      "g": 0,
      "b": 205
    }
  },
  {
    "name": "Ogawa",
    "lat": 36.0562,
    "lon": 139.2626,
    "x": 216,
    "y": 250,
    "color": {
      "r": 0,
      "g": 0,
      "b": 205
    }
  },
  {
    "name": "Ogano",
    "lat": 36.0274,
    "lon": 138.9691,
    "x": 210,
    "y": 251,
    "color": {
      "r": 0,
      "g": 0,
      "b": 205
    }
  },
  {
    "name": "Iwatsuki-Ward",
    "lat": 35.929,
    "lon": 139.7349,
    "x": 226,
    "y": 254,
    "color": {
      "r": 0,
      "g": 0,
      "b": 0
    }
  },
  {
    "name": "Kawaguchi",
    "lat": 35.8098,
    "lon": 139.7212,
    "x": 226,
    "y": 256,
    "color": {
      "r": 0,
      "g": 43,
      "b": 231
    }
  },
  {
    "name": "Kawamoto",
    "lat": 36.1131,
    "lon": 139.2894,
    "x": 217,
    "y": 248,
    "color": {
      "r": 0,
      "g": 0,
      "b": 205
    }
  },
  {
    "name": "Kawagoe",
    "lat": 35.9034,
    "lon": 139.4826,
    "x": 221,
    "y": 253,
    "color": {
      "r": 0,
      "g": 153,
      "b": 183
    }
  },
  {
    "name": "Tokorozawa",
    "lat": 35.8028,
    "lon": 139.5353,
    "x": 223,
    "y": 256,
    "color": {
      "r": 0,
      "g": 140,
      "b": 194
    }
  },
  {
    "name": "Tokorozawa",
    "lat": 35.7965,
    "lon": 139.4659,
    "x": 219,
    "y": 256,
    "color": {
      "r": 0,
      "g": 0,
      "b": 205
    }
  },
  {
    "name": "Hidaka",
    "lat": 35.899,
    "lon": 139.3843,
    "x": 219,
    "y": 253,
    "color": {
      "r": 0,
      "g": 0,
      "b": 0
    }
  },
  {
    "name": "Kasukabe",
    "lat": 35.9745,
    "lon": 139.7526,
    "x": 227,
    "y": 251,
    "color": {
      "r": 0,
      "g": 0,
      "b": 205
    }
  },
  {
    "name": "Honjō",
    "lat": 36.2428,
    "lon": 139.1937,
    "x": 215,
    "y": 246,
    "color": {
      "r": 0,
      "g": 0,
      "b": 205
    }
  },
  {
    "name": "Higashimatsuyama",
    "lat": 36.054,
    "lon": 139.3912,
    "x": 219,
    "y": 250,
    "color": {
      "r": 0,
      "g": 0,
      "b": 0
    }
  },
  {
    "name": "Kumagaya",
    "lat": 36.1476,
    "lon": 139.3884,
    "x": 219,
    "y": 248,
    "color": {
      "r": 0,
      "g": 0,
      "b": 205
    }
  },
  {
    "name": "Minano",
    "lat": 36.0715,
    "lon": 139.0993,
    "x": 213,
    "y": 250,
    "color": {
      "r": 0,
      "g": 0,
      "b": 205
    }
  },
  {
    "name": "Kamiizumi",
    "lat": 36.1509,
    "lon": 139.0504,
    "x": 212,
    "y": 248,
    "color": {
      "r": 0,
      "g": 0,
      "b": 205
    }
  },
  {
    "name": "Chichibu",
    "lat": 35.9954,
    "lon": 139.0709,
    "x": 212,
    "y": 252,
    "color": {
      "r": 0,
      "g": 0,
      "b": 205
    }
  },
  {
    "name": "Tokigawa",
    "lat": 35.9964,
    "lon": 139.2191,
    "x": 216,
    "y": 251,
    "color": {
      "r": 0,
      "g": 0,
      "b": 205
    }
  },
  {
    "name": "Tokigawa 2",
    "lat": 35.9969,
    "lon": 139.2194,
    "x": 216,
    "y": 251,
    "color": {
      "r": 0,
      "g": 0,
      "b": 205
    }
  },
  {
    "name": "Nagatoro",
    "lat": 36.1179,
    "lon": 139.1045,
    "x": 214,
    "y": 248,
    "color": {
      "r": 0,
      "g": 0,
      "b": 205
    }
  },
  {
    "name": "Hannō",
    "lat": 35.8637,
    "lon": 139.2726,
    "x": 217,
    "y": 254,
    "color": {
      "r": 0,
      "g": 0,
      "b": 205
    }
  },
  {
    "name": "Hannō",
    "lat": 35.8401,
    "lon": 139.3215,
    "x": 219,
    "y": 256,
    "color": {
      "r": 0,
      "g": 0,
      "b": 205
    }
  },
  {
    "name": "Mie",
    "lat": 32.987,
    "lon": 131.5881,
    "x": 60,
    "y": 325,
    "color": {
      "r": 0,
      "g": 0,
      "b": 205
    }
  },
  {
    "name": "Nakatsu",
    "lat": 33.5685,
    "lon": 131.2678,
    "x": 54,
    "y": 311,
    "color": {
      "r": 0,
      "g": 0,
      "b": 205
    }
  },
  {
    "name": "Kokonoe",
    "lat": 33.2844,
    "lon": 131.2118,
    "x": 53,
    "y": 318,
    "color": {
      "r": 0,
      "g": 0,
      "b": 205
    }
  },
  {
    "name": "Saiki",
    "lat": 32.9278,
    "lon": 131.8695,
    "x": 66,
    "y": 327,
    "color": {
      "r": 0,
      "g": 0,
      "b": 205
    }
  },
  {
    "name": "Saiki",
    "lat": 32.9747,
    "lon": 131.9028,
    "x": 68,
    "y": 326,
    "color": {
      "r": 0,
      "g": 0,
      "b": 205
    }
  },
  {
    "name": "Saganoseki",
    "lat": 33.2461,
    "lon": 131.8811,
    "x": 66,
    "y": 319,
    "color": {
      "r": 0,
      "g": 0,
      "b": 205
    }
  },
  {
    "name": "Kunisaki",
    "lat": 33.5666,
    "lon": 131.7378,
    "x": 63,
    "y": 311,
    "color": {
      "r": 0,
      "g": 0,
      "b": 0
    }
  },
  {
    "name": "Kunimi",
    "lat": 33.6783,
    "lon": 131.5936,
    "x": 60,
    "y": 308,
    "color": {
      "r": 0,
      "g": 0,
      "b": 0
    }
  },
  {
    "name": "Ōita",
    "lat": 33.2478,
    "lon": 131.6103,
    "x": 61,
    "y": 319,
    "color": {
      "r": 0,
      "g": 0,
      "b": 205
    }
  },
  {
    "name": "Amagase",
    "lat": 33.2555,
    "lon": 131.0203,
    "x": 49,
    "y": 319,
    "color": {
      "r": 0,
      "g": 0,
      "b": 0
    }
  },
  {
    "name": "Ume",
    "lat": 32.8578,
    "lon": 131.6587,
    "x": 62,
    "y": 328,
    "color": {
      "r": 0,
      "g": 0,
      "b": 205
    }
  },
  {
    "name": "Eastern Ume",
    "lat": 32.8486,
    "lon": 131.6786,
    "x": 62,
    "y": 329,
    "color": {
      "r": 0,
      "g": 0,
      "b": 205
    }
  },
  {
    "name": "Western Ume",
    "lat": 32.8392,
    "lon": 131.5357,
    "x": 59,
    "y": 329,
    "color": {
      "r": 0,
      "g": 0,
      "b": 205
    }
  },
  {
    "name": "Aki",
    "lat": 33.4736,
    "lon": 131.6856,
    "x": 62,
    "y": 313,
    "color": {
      "r": 0,
      "g": 0,
      "b": 205
    }
  },
  {
    "name": "Yamakuni",
    "lat": 33.4122,
    "lon": 131.0326,
    "x": 49,
    "y": 315,
    "color": {
      "r": 0,
      "g": 0,
      "b": 205
    }
  },
  {
    "name": "Yamaga",
    "lat": 33.4581,
    "lon": 131.4429,
    "x": 57,
    "y": 314,
    "color": {
      "r": 0,
      "g": 0,
      "b": 205
    }
  },
  {
    "name": "Shōnai",
    "lat": 33.1306,
    "lon": 131.3473,
    "x": 55,
    "y": 322,
    "color": {
      "r": 0,
      "g": 0,
      "b": 205
    }
  },
  {
    "name": "Kitsuki",
    "lat": 33.4152,
    "lon": 131.6148,
    "x": 61,
    "y": 315,
    "color": {
      "r": 0,
      "g": 0,
      "b": 205
    }
  },
  {
    "name": "Tsukumi",
    "lat": 33.0656,
    "lon": 131.8589,
    "x": 66,
    "y": 323,
    "color": {
      "r": 0,
      "g": 0,
      "b": 205
    }
  },
  {
    "name": "Yufuin",
    "lat": 33.2569,
    "lon": 131.3439,
    "x": 55,
    "y": 319,
    "color": {
      "r": 0,
      "g": 0,
      "b": 205
    }
  },
  {
    "name": "Inukai",
    "lat": 33.0726,
    "lon": 131.5934,
    "x": 60,
    "y": 323,
    "color": {
      "r": 0,
      "g": 0,
      "b": 205
    }
  },
  {
    "name": "Naoiri",
    "lat": 33.0664,
    "lon": 131.3734,
    "x": 56,
    "y": 323,
    "color": {
      "r": 0,
      "g": 0,
      "b": 205
    }
  },
  {
    "name": "Taketa",
    "lat": 32.9733,
    "lon": 131.3998,
    "x": 56,
    "y": 326,
    "color": {
      "r": 0,
      "g": 0,
      "b": 205
    }
  },
  {
    "name": "Taketa",
    "lat": 32.9726,
    "lon": 131.3984,
    "x": 56,
    "y": 326,
    "color": {
      "r": 0,
      "g": 0,
      "b": 205
    }
  },
  {
    "name": "Yabakei",
    "lat": 33.4549,
    "lon": 131.1142,
    "x": 51,
    "y": 314,
    "color": {
      "r": 0,
      "g": 0,
      "b": 0
    }
  },
  {
    "name": "Kamae",
    "lat": 32.7972,
    "lon": 131.9251,
    "x": 67,
    "y": 330,
    "color": {
      "r": 0,
      "g": 0,
      "b": 205
    }
  },
  {
    "name": "Bungotakada",
    "lat": 33.5575,
    "lon": 131.4461,
    "x": 57,
    "y": 311,
    "color": {
      "r": 0,
      "g": 0,
      "b": 0
    }
  },
  {
    "name": "Notsuharu",
    "lat": 33.1525,
    "lon": 131.542,
    "x": 59,
    "y": 321,
    "color": {
      "r": 0,
      "g": 0,
      "b": 205
    }
  },
  {
    "name": "Innai",
    "lat": 33.4244,
    "lon": 131.3148,
    "x": 55,
    "y": 314,
    "color": {
      "r": 0,
      "g": 0,
      "b": 0
    }
  },
  {
    "name": "Katano",
    "lat": 34.763,
    "lon": 135.7052,
    "x": 145,
    "y": 281,
    "color": {
      "r": 0,
      "g": 0,
      "b": 205
    }
  },
  {
    "name": "Shijōnawate",
    "lat": 34.7405,
    "lon": 135.6394,
    "x": 142,
    "y": 282,
    "color": {
      "r": 0,
      "g": 0,
      "b": 205
    }
  },
  {
    "name": "Sakai",
    "lat": 34.5894,
    "lon": 135.471,
    "x": 139,
    "y": 286,
    "color": {
      "r": 0,
      "g": 50,
      "b": 236
    }
  },
  {
    "name": "Ōsaka",
    "lat": 34.7159,
    "lon": 135.5199,
    "x": 140,
    "y": 283,
    "color": {
      "r": 0,
      "g": 85,
      "b": 238
    }
  },
  {
    "name": "Ōsaka",
    "lat": 34.7255,
    "lon": 135.5099,
    "x": 140,
    "y": 283,
    "color": {
      "r": 0,
      "g": 85,
      "b": 238
    }
  },
  {
    "name": "Taishi",
    "lat": 34.5248,
    "lon": 135.6608,
    "x": 144,
    "y": 287,
    "color": {
      "r": 0,
      "g": 0,
      "b": 205
    }
  },
  {
    "name": "Kishiwada",
    "lat": 34.4402,
    "lon": 135.3917,
    "x": 138,
    "y": 290,
    "color": {
      "r": 0,
      "g": 0,
      "b": 205
    }
  },
  {
    "name": "Konohana-Ward",
    "lat": 34.6628,
    "lon": 135.3896,
    "x": 138,
    "y": 284,
    "color": {
      "r": 0,
      "g": 0,
      "b": 205
    }
  },
  {
    "name": "Kawachinagano",
    "lat": 34.4366,
    "lon": 135.5816,
    "x": 142,
    "y": 290,
    "color": {
      "r": 0,
      "g": 0,
      "b": 205
    }
  },
  {
    "name": "Sennan",
    "lat": 34.3755,
    "lon": 135.2549,
    "x": 135,
    "y": 291,
    "color": {
      "r": 0,
      "g": 112,
      "b": 216
    }
  },
  {
    "name": "Tajiri",
    "lat": 34.3977,
    "lon": 135.2836,
    "x": 135,
    "y": 291,
    "color": {
      "r": 0,
      "g": 112,
      "b": 216
    }
  },
  {
    "name": "Habikino",
    "lat": 34.5577,
    "lon": 135.6058,
    "x": 141,
    "y": 287,
    "color": {
      "r": 0,
      "g": 0,
      "b": 205
    }
  },
  {
    "name": "Nose",
    "lat": 34.9707,
    "lon": 135.39,
    "x": 138,
    "y": 277,
    "color": {
      "r": 0,
      "g": 0,
      "b": 205
    }
  },
  {
    "name": "Toyonaka",
    "lat": 34.7668,
    "lon": 135.4683,
    "x": 139,
    "y": 281,
    "color": {
      "r": 0,
      "g": 0,
      "b": 205
    }
  },
  {
    "name": "Takatsuki",
    "lat": 34.8573,
    "lon": 135.5958,
    "x": 142,
    "y": 279,
    "color": {
      "r": 0,
      "g": 85,
      "b": 238
    }
  },
  {
    "name": "Kamikitayama",
    "lat": 34.1352,
    "lon": 136.0046,
    "x": 150,
    "y": 297,
    "color": {
      "r": 0,
      "g": 0,
      "b": 0
    }
  },
  {
    "name": "Gojō",
    "lat": 34.3408,
    "lon": 135.6883,
    "x": 144,
    "y": 292,
    "color": {
      "r": 0,
      "g": 0,
      "b": 205
    }
  },
  {
    "name": "Totsukawa",
    "lat": 33.938,
    "lon": 135.7552,
    "x": 145,
    "y": 302,
    "color": {
      "r": 0,
      "g": 0,
      "b": 0
    }
  },
  {
    "name": "Eastern Totsukawa",
    "lat": 33.9692,
    "lon": 135.8574,
    "x": 147,
    "y": 301,
    "color": {
      "r": 0,
      "g": 0,
      "b": 205
    }
  },
  {
    "name": "Western Totsukawa",
    "lat": 33.9666,
    "lon": 135.6489,
    "x": 143,
    "y": 301,
    "color": {
      "r": 0,
      "g": 0,
      "b": 205
    }
  },
  {
    "name": "Yamatotakada",
    "lat": 34.5169,
    "lon": 135.7191,
    "x": 144,
    "y": 288,
    "color": {
      "r": 0,
      "g": 0,
      "b": 205
    }
  },
  {
    "name": "Ōtō",
    "lat": 34.2213,
    "lon": 135.7369,
    "x": 145,
    "y": 295,
    "color": {
      "r": 0,
      "g": 0,
      "b": 0
    }
  },
  {
    "name": "Tenri",
    "lat": 34.5843,
    "lon": 135.8541,
    "x": 147,
    "y": 286,
    "color": {
      "r": 0,
      "g": 0,
      "b": 205
    }
  },
  {
    "name": "Nara",
    "lat": 34.6683,
    "lon": 135.8352,
    "x": 147,
    "y": 284,
    "color": {
      "r": 0,
      "g": 0,
      "b": 205
    }
  },
  {
    "name": "Yamazoe",
    "lat": 34.6413,
    "lon": 136.0512,
    "x": 150,
    "y": 285,
    "color": {
      "r": 0,
      "g": 0,
      "b": 205
    }
  },
  {
    "name": "Kawakami",
    "lat": 34.2925,
    "lon": 136.0022,
    "x": 150,
    "y": 293,
    "color": {
      "r": 0,
      "g": 0,
      "b": 205
    }
  },
  {
    "name": "Kawakami",
    "lat": 34.3383,
    "lon": 135.9541,
    "x": 149,
    "y": 292,
    "color": {
      "r": 0,
      "g": 0,
      "b": 205
    }
  },
  {
    "name": "Higashiyoshino",
    "lat": 34.4237,
    "lon": 136.0294,
    "x": 151,
    "y": 290,
    "color": {
      "r": 0,
      "g": 0,
      "b": 205
    }
  },
  {
    "name": "Haibara",
    "lat": 34.528,
    "lon": 135.9512,
    "x": 149,
    "y": 287,
    "color": {
      "r": 0,
      "g": 0,
      "b": 205
    }
  },
  {
    "name": "Ikoma",
    "lat": 34.7154,
    "lon": 135.7272,
    "x": 146,
    "y": 282,
    "color": {
      "r": 0,
      "g": 0,
      "b": 205
    }
  },
  {
    "name": "Kurotaki",
    "lat": 34.3061,
    "lon": 135.8369,
    "x": 147,
    "y": 293,
    "color": {
      "r": 0,
      "g": 0,
      "b": 205
    }
  },
  {
    "name": "Sendai",
    "lat": 38.24,
    "lon": 140.9969,
    "x": 252,
    "y": 196,
    "color": {
      "r": 0,
      "g": 0,
      "b": 0
    }
  },
  {
    "name": "Sendai",
    "lat": 38.2663,
    "lon": 140.9293,
    "x": 250,
    "y": 196,
    "color": {
      "r": 0,
      "g": 0,
      "b": 205
    }
  },
  {
    "name": "Isatomae",
    "lat": 38.7194,
    "lon": 141.5228,
    "x": 262,
    "y": 185,
    "color": {
      "r": 0,
      "g": 0,
      "b": 205
    }
  },
  {
    "name": "Sakunami",
    "lat": 38.3177,
    "lon": 140.6357,
    "x": 244,
    "y": 194,
    "color": {
      "r": 0,
      "g": 153,
      "b": 183
    }
  },
  {
    "name": "Rifu",
    "lat": 38.34,
    "lon": 140.9551,
    "x": 251,
    "y": 194,
    "color": {
      "r": 0,
      "g": 64,
      "b": 245
    }
  },
  {
    "name": "Kitakami",
    "lat": 38.5676,
    "lon": 141.4266,
    "x": 260,
    "y": 188,
    "color": {
      "r": 0,
      "g": 0,
      "b": 205
    }
  },
  {
    "name": "Minamisanriku",
    "lat": 38.6993,
    "lon": 141.4176,
    "x": 259,
    "y": 185,
    "color": {
      "r": 0,
      "g": 0,
      "b": 205
    }
  },
  {
    "name": "Furukawa",
    "lat": 38.5801,
    "lon": 140.9654,
    "x": 251,
    "y": 188,
    "color": {
      "r": 0,
      "g": 0,
      "b": 205
    }
  },
  {
    "name": "Karakuwa",
    "lat": 38.9207,
    "lon": 141.6377,
    "x": 265,
    "y": 180,
    "color": {
      "r": 0,
      "g": 0,
      "b": 205
    }
  },
  {
    "name": "Shiogama",
    "lat": 38.3288,
    "lon": 141.0128,
    "x": 253,
    "y": 194,
    "color": {
      "r": 0,
      "g": 0,
      "b": 205
    }
  },
  {
    "name": "Taiwa",
    "lat": 38.4466,
    "lon": 140.8874,
    "x": 250,
    "y": 191,
    "color": {
      "r": 0,
      "g": 0,
      "b": 205
    }
  },
  {
    "name": "Onoda",
    "lat": 38.5793,
    "lon": 140.7804,
    "x": 247,
    "y": 188,
    "color": {
      "r": 0,
      "g": 0,
      "b": 205
    }
  },
  {
    "name": "Yamamoto",
    "lat": 37.9411,
    "lon": 140.8924,
    "x": 250,
    "y": 204,
    "color": {
      "r": 0,
      "g": 0,
      "b": 205
    }
  },
  {
    "name": "Iwanuma",
    "lat": 38.1133,
    "lon": 140.8441,
    "x": 249,
    "y": 199,
    "color": {
      "r": 0,
      "g": 0,
      "b": 205
    }
  },
  {
    "name": "Iwanuma",
    "lat": 38.1049,
    "lon": 140.8699,
    "x": 249,
    "y": 201,
    "color": {
      "r": 0,
      "g": 57,
      "b": 240
    }
  },
  {
    "name": "Kawasaki",
    "lat": 38.1802,
    "lon": 140.6405,
    "x": 244,
    "y": 198,
    "color": {
      "r": 0,
      "g": 0,
      "b": 205
    }
  },
  {
    "name": "Shizugawa",
    "lat": 38.6416,
    "lon": 141.4428,
    "x": 261,
    "y": 186,
    "color": {
      "r": 0,
      "g": 0,
      "b": 205
    }
  },
  {
    "name": "Tōwa",
    "lat": 38.786,
    "lon": 141.3254,
    "x": 258,
    "y": 183,
    "color": {
      "r": 0,
      "g": 0,
      "b": 205
    }
  },
  {
    "name": "Tōwa",
    "lat": 38.7348,
    "lon": 141.3106,
    "x": 258,
    "y": 184,
    "color": {
      "r": 0,
      "g": 0,
      "b": 205
    }
  },
  {
    "name": "Utatsu",
    "lat": 38.7262,
    "lon": 141.5109,
    "x": 262,
    "y": 184,
    "color": {
      "r": 0,
      "g": 0,
      "b": 205
    }
  },
  {
    "name": "Kesennuma",
    "lat": 38.9015,
    "lon": 141.5684,
    "x": 263,
    "y": 180,
    "color": {
      "r": 0,
      "g": 0,
      "b": 205
    }
  },
  {
    "name": "Kahoku",
    "lat": 38.5158,
    "lon": 141.3421,
    "x": 259,
    "y": 190,
    "color": {
      "r": 0,
      "g": 0,
      "b": 205
    }
  },
  {
    "name": "Ojika",
    "lat": 38.3052,
    "lon": 141.5044,
    "x": 262,
    "y": 195,
    "color": {
      "r": 0,
      "g": 0,
      "b": 205
    }
  },
  {
    "name": "Tajiri",
    "lat": 38.5907,
    "lon": 141.071,
    "x": 253,
    "y": 188,
    "color": {
      "r": 0,
      "g": 0,
      "b": 205
    }
  },
  {
    "name": "Shiroishi",
    "lat": 38.0091,
    "lon": 140.6027,
    "x": 244,
    "y": 202,
    "color": {
      "r": 0,
      "g": 0,
      "b": 205
    }
  },
  {
    "name": "Shiroishi",
    "lat": 38.0085,
    "lon": 140.621,
    "x": 244,
    "y": 202,
    "color": {
      "r": 0,
      "g": 0,
      "b": 205
    }
  },
  {
    "name": "Ishinomaki",
    "lat": 38.4292,
    "lon": 141.2818,
    "x": 258,
    "y": 192,
    "color": {
      "r": 0,
      "g": 0,
      "b": 205
    }
  },
  {
    "name": "Tsukidate",
    "lat": 38.7324,
    "lon": 141.0271,
    "x": 252,
    "y": 184,
    "color": {
      "r": 0,
      "g": 0,
      "b": 205
    }
  },
  {
    "name": "Kakuda",
    "lat": 37.9763,
    "lon": 140.7818,
    "x": 247,
    "y": 203,
    "color": {
      "r": 0,
      "g": 0,
      "b": 205
    }
  },
  {
    "name": "Toyosato",
    "lat": 38.5876,
    "lon": 141.251,
    "x": 257,
    "y": 188,
    "color": {
      "r": 0,
      "g": 0,
      "b": 205
    }
  },
  {
    "name": "Naruko",
    "lat": 38.8587,
    "lon": 140.6513,
    "x": 245,
    "y": 181,
    "color": {
      "r": 0,
      "g": 0,
      "b": 205
    }
  },
  {
    "name": "Naruko",
    "lat": 38.7992,
    "lon": 140.6507,
    "x": 245,
    "y": 183,
    "color": {
      "r": 0,
      "g": 0,
      "b": 205
    }
  },
  {
    "name": "Naruko Onsen",
    "lat": 38.7508,
    "lon": 140.7246,
    "x": 247,
    "y": 185,
    "color": {
      "r": 0,
      "g": 0,
      "b": 205
    }
  },
  {
    "name": "Ebino",
    "lat": 32.0461,
    "lon": 130.811,
    "x": 44,
    "y": 348,
    "color": {
      "r": 0,
      "g": 0,
      "b": 205
    }
  },
  {
    "name": "Kushima",
    "lat": 31.4637,
    "lon": 131.2277,
    "x": 53,
    "y": 363,
    "color": {
      "r": 0,
      "g": 0,
      "b": 205
    }
  },
  {
    "name": "Gokase",
    "lat": 32.6536,
    "lon": 131.2257,
    "x": 53,
    "y": 333,
    "color": {
      "r": 0,
      "g": 0,
      "b": 0
    }
  },
  {
    "name": "Sadowara",
    "lat": 32.0208,
    "lon": 131.47,
    "x": 58,
    "y": 349,
    "color": {
      "r": 0,
      "g": 0,
      "b": 205
    }
  },
  {
    "name": "Kitagawa",
    "lat": 32.6972,
    "lon": 131.6829,
    "x": 62,
    "y": 332,
    "color": {
      "r": 0,
      "g": 0,
      "b": 205
    }
  },
  {
    "name": "Kitagawa",
    "lat": 32.6978,
    "lon": 131.6831,
    "x": 62,
    "y": 332,
    "color": {
      "r": 0,
      "g": 0,
      "b": 205
    }
  },
  {
    "name": "Kitagō",
    "lat": 32.5006,
    "lon": 131.4444,
    "x": 57,
    "y": 337,
    "color": {
      "r": 0,
      "g": 0,
      "b": 0
    }
  },
  {
    "name": "Nangō",
    "lat": 32.347,
    "lon": 131.2668,
    "x": 54,
    "y": 341,
    "color": {
      "r": 0,
      "g": 0,
      "b": 205
    }
  },
  {
    "name": "Nangō",
    "lat": 32.3889,
    "lon": 131.3339,
    "x": 55,
    "y": 340,
    "color": {
      "r": 0,
      "g": 0,
      "b": 205
    }
  },
  {
    "name": "Kunitomi",
    "lat": 32.0215,
    "lon": 131.29,
    "x": 54,
    "y": 349,
    "color": {
      "r": 0,
      "g": 0,
      "b": 205
    }
  },
  {
    "name": "Miyazaki",
    "lat": 31.9087,
    "lon": 131.4187,
    "x": 57,
    "y": 352,
    "color": {
      "r": 0,
      "g": 0,
      "b": 205
    }
  },
  {
    "name": "Kobayashi",
    "lat": 31.9968,
    "lon": 130.9721,
    "x": 48,
    "y": 349,
    "color": {
      "r": 0,
      "g": 180,
      "b": 161
    }
  },